,Unnamed: 0,Année,Département,Code INSEE,Nom de la commune,Date de première alerte,Surface parcourue (m2),latitude,longitude,date,fwi_associe,fwi,fwi_class
0,0,2025,11,11311,Ribaute,8/5/2025 16:16,"  111,330,000.00 ",43.1055,2.6434,2025-08-05,"{'lat': 43.1055, 'lon': 2.6434, 'date': '2025-08-05', 'fwi': 93.389, 'fwi_class': 'extreme', 'fetched_at': '2026-06-30T14:33:45.800797Z'}",93.389,extreme
1,1,2025,11,11262,Narbonne,7/7/2025 14:45,"  15,512,500.00 ",43.1493,3.0337,2025-07-07,"{'lat': 43.1493, 'lon': 3.0337, 'date': '2025-07-07', 'fwi': 73.577, 'fwi_class': 'extreme', 'fetched_at': '2026-06-30T14:33:45.944786Z'}",73.577,extreme
2,2,2025,13,13071,Les Pennes-Mirabeau,7/8/2025 12:49,"  6,162,500.00 ",43.4005,5.3222,2025-07-08,"{'lat': 43.4005, 'lon': 5.3222, 'date': '2025-07-08', 'fwi': 88.585, 'fwi_class': 'extreme', 'fetched_at': '2026-06-30T14:33:46.095860Z'}",88.585,extreme
3,3,2025,30,30176,Montdardier,7/8/2025 13:46,"  4,116,800.00 ",43.9292,3.5791,2025-07-08,"{'lat': 43.9292, 'lon': 3.5791, 'date': '2025-07-08', 'fwi': 32.006, 'fwi_class': 'high', 'fetched_at': '2026-06-30T14:33:46.234611Z'}",32.006,high
4,4,2025,11,11122,Douzens,7/5/2025 13:33,"  3,647,900.00 ",43.1757,2.6096,2025-07-05,"{'lat': 43.1757, 'lon': 2.6096, 'date': '2025-07-05', 'fwi': 61.207, 'fwi_class': 'extreme', 'fetched_at': '2026-06-30T14:33:46.381217Z'}",61.207,extreme
5,5,2025,11,11379,Sigean,7/26/2025 13:39,"  2,829,100.00 ",43.0344,2.9793,2025-07-26,"{'lat': 43.0344, 'lon': 2.9793, 'date': '2025-07-26', 'fwi': 76.428, 'fwi_class': 'extreme', 'fetched_at': '2026-06-30T14:33:46.539599Z'}",76.428,extreme
6,6,2025,37,37031,Bourgueil,4/10/2025 10:32,"  2,746,500.00 ",47.31,0.1712,2025-04-10,"{'lat': 47.31, 'lon': 0.1712, 'date': '2025-04-10', 'fwi': 20.906, 'fwi_class': 'moderate', 'fetched_at': '2026-06-30T14:33:46.697508Z'}",20.906,moderate
7,7,2025,34,34095,Fabrègues,7/5/2025 13:28,"  2,719,700.00 ",43.5312,3.7737,2025-07-05,"{'lat': 43.5312, 'lon': 3.7737, 'date': '2025-07-05', 'fwi': 47.598, 'fwi_class': 'very_high', 'fetched_at': '2026-06-30T14:33:46.862231Z'}",47.598,very_high
8,8,2025,13,13056,Martigues,7/17/2025 19:21,"  2,246,200.00 ",43.3839,5.0451,2025-07-17,"{'lat': 43.3839, 'lon': 5.0451, 'date': '2025-07-17', 'fwi': 99.962, 'fwi_class': 'extreme', 'fetched_at': '2026-06-30T14:33:47.032398Z'}",99.962,extreme
9,9,2025,11,11040,Bizanet,6/29/2025 15:55,"  2,184,800.00 ",43.1445,2.8704,2025-06-29,"{'lat': 43.1445, 'lon': 2.8704, 'date': '2025-06-29', 'fwi': 57.361, 'fwi_class': 'extreme', 'fetched_at': '2026-06-30T14:33:47.182205Z'}",57.361,extreme
10,10,2025,2B,2B298,Saint-Florent,10/5/2025 10:50,"  2,118,000.00 ",42.689,9.2797,2025-10-05,"{'lat': 42.689, 'lon': 9.2797, 'date': '2025-10-05', 'fwi': 20.774, 'fwi_class': 'moderate', 'fetched_at': '2026-06-30T14:33:47.332233Z'}",20.774,moderate
11,11,2025,16,16357,Saint-Vallier,8/11/2025 16:25,"  2,011,000.00 ",45.2833,-0.0731,2025-08-11,"{'lat': 45.2833, 'lon': -0.0731, 'date': '2025-08-11', 'fwi': 51.488, 'fwi_class': 'extreme', 'fetched_at': '2026-06-30T14:33:47.472141Z'}",51.488,extreme
12,12,2025,63,63098,Chastreix,4/7/2025 13:12,"  1,960,000.00 ",45.5132,2.7518,2025-04-07,"{'lat': 45.5132, 'lon': 2.7518, 'date': '2025-04-07', 'fwi': 3.815, 'fwi_class': 'very_low', 'fetched_at': '2026-06-30T14:33:47.628426Z'}",3.815,very_low
13,13,2025,2B,2B185,Oletta,10/5/2025 12:27,"  1,902,800.00 ",42.6451,9.3453,2025-10-05,"{'lat': 42.6451, 'lon': 9.3453, 'date': '2025-10-05', 'fwi': 18.49, 'fwi_class': 'moderate', 'fetched_at': '2026-06-30T14:33:47.780691Z'}",18.49,moderate
14,14,2025,2A,2A269,Sari-Solenzara,6/23/2025 16:49,"  1,821,100.00 ",41.8163,9.3395,2025-06-23,"{'lat': 41.8163, 'lon': 9.3395, 'date': '2025-06-23', 'fwi': 20.483, 'fwi_class': 'moderate', 'fetched_at': '2026-06-30T14:33:47.934218Z'}",20.483,moderate
15,15,2025,34,34056,Castelnau-de-Guers,7/8/2025 16:35,"  1,602,716.00 ",43.436,3.4718,2025-07-08,"{'lat': 43.436, 'lon': 3.4718, 'date': '2025-07-08', 'fwi': 71.772, 'fwi_class': 'extreme', 'fetched_at': '2026-06-30T14:33:48.073682Z'}",71.772,extreme
16,16,2025,34,34087,Cournonsec,7/28/2025 16:45,"  1,358,600.00 ",43.5395,3.7024,2025-07-28,"{'lat': 43.5395, 'lon': 3.7024, 'date': '2025-07-28', 'fwi': 68.028, 'fwi_class': 'extreme', 'fetched_at': '2026-06-30T14:33:48.241365Z'}",68.028,extreme
17,17,2025,2B,2B143,Linguizzetta,6/28/2025 16:30,"  1,134,600.00 ",42.2144,9.5014,2025-06-28,"{'lat': 42.2144, 'lon': 9.5014, 'date': '2025-06-28', 'fwi': 18.644, 'fwi_class': 'moderate', 'fetched_at': '2026-06-30T14:33:48.393838Z'}",18.644,moderate
18,18,2025,6,6023,Breil-sur-Roya,3/5/2025 18:02,"  1,113,800.00 ",43.9379,7.4996,2025-03-05,"{'lat': 43.9379, 'lon': 7.4996, 'date': '2025-03-05', 'fwi': 5.371, 'fwi_class': 'low', 'fetched_at': '2026-06-30T14:33:48.542002Z'}",5.371,low
19,19,2025,6,6136,Sospel,3/6/2025 19:11,"  996,900.00 ",43.8872,7.4493,2025-03-06,"{'lat': 43.8872, 'lon': 7.4493, 'date': '2025-03-06', 'fwi': 5.977, 'fwi_class': 'low', 'fetched_at': '2026-06-30T14:33:48.689511Z'}",5.977,low
20,20,2025,18,18088,Ennordres,7/5/2025 12:35,"  977,200.00 ",47.4204,2.4211,2025-07-05,"{'lat': 47.4204, 'lon': 2.4211, 'date': '2025-07-05', 'fwi': 42.382, 'fwi_class': 'very_high', 'fetched_at': '2026-06-30T14:33:48.833550Z'}",42.382,very_high
21,21,2025,24,24218,Jumilhac-le-Grand,7/15/2025 13:49,"  859,000.00 ",45.5032,1.0874,2025-07-15,"{'lat': 45.5032, 'lon': 1.0874, 'date': '2025-07-15', 'fwi': 28.678, 'fwi_class': 'high', 'fetched_at': '2026-06-30T14:33:48.977401Z'}",28.678,high
22,22,2025,9,9087,Caussou,12/18/2025 14:38,"  820,000.00 ",42.7743,1.8219,2025-12-18,"{'lat': 42.7743, 'lon': 1.8219, 'date': '2025-12-18', 'fwi': 5.293, 'fwi_class': 'low', 'fetched_at': '2026-06-30T14:33:49.143957Z'}",5.293,low
23,23,2025,22,22128,Locarn,4/5/2025 15:25,"  801,190.00 ",48.3317,-3.4177,2025-04-05,"{'lat': 48.3317, 'lon': -3.4177, 'date': '2025-04-05', 'fwi': 4.293, 'fwi_class': 'very_low', 'fetched_at': '2026-06-30T14:33:49.282821Z'}",4.293,very_low
24,24,2025,13,13088,Le Rove,7/5/2025 3:38,"  748,100.00 ",43.3622,5.2498,2025-07-05,"{'lat': 43.3622, 'lon': 5.2498, 'date': '2025-07-05', 'fwi': 62.015, 'fwi_class': 'extreme', 'fetched_at': '2026-06-30T14:33:49.426864Z'}",62.015,extreme
25,25,2025,83,83095,Pontevès,8/18/2025 12:38,"  724,700.00 ",43.5509,6.0687,2025-08-18,"{'lat': 43.5509, 'lon': 6.0687, 'date': '2025-08-18', 'fwi': 52.277, 'fwi_class': 'extreme', 'fetched_at': '2026-06-30T14:33:49.570575Z'}",52.277,extreme
26,26,2025,79,79352,Villiers-sur-Chizé,7/10/2025 12:42,"  704,000.00 ",46.0965,-0.2969,2025-07-10,"{'lat': 46.0965, 'lon': -0.2969, 'date': '2025-07-10', 'fwi': 49.873, 'fwi_class': 'very_high', 'fetched_at': '2026-06-30T14:33:49.707014Z'}",49.873,very_high
27,27,2025,6,6023,Breil-sur-Roya,3/6/2025 23:07,"  684,400.00 ",43.9379,7.4996,2025-03-06,"{'lat': 43.9379, 'lon': 7.4996, 'date': '2025-03-06', 'fwi': 5.543, 'fwi_class': 'low', 'fetched_at': '2026-06-30T14:33:49.856254Z'}",5.543,low
28,28,2025,86,86029,Blanzay,7/12/2025 18:24,"  675,000.00 ",46.2128,0.2529,2025-07-12,"{'lat': 46.2128, 'lon': 0.2529, 'date': '2025-07-12', 'fwi': 60.811, 'fwi_class': 'extreme', 'fetched_at': '2026-06-30T14:33:50.000800Z'}",60.811,extreme
29,29,2025,40,40268,Saint-Laurent-de-Gosse,3/8/2025 1:36,"  658,000.00 ",43.5233,-1.2851,2025-03-08,"{'lat': 43.5233, 'lon': -1.2851, 'date': '2025-03-08', 'fwi': 2.484, 'fwi_class': 'very_low', 'fetched_at': '2026-06-30T14:33:50.145337Z'}",2.484,very_low
30,30,2025,34,34016,Aumelas,10/26/2025 11:14,"  656,600.00 ",43.5768,3.6056,2025-10-26,"{'lat': 43.5768, 'lon': 3.6056, 'date': '2025-10-26', 'fwi': 32.132, 'fwi_class': 'high', 'fetched_at': '2026-06-30T14:33:50.282364Z'}",32.132,high
31,31,2025,2B,2B306,Santa-Lucia-di-Mercurio,6/17/2025 14:39,"  641,800.00 ",42.3186,9.2217,2025-06-17,"{'lat': 42.3186, 'lon': 9.2217, 'date': '2025-06-17', 'fwi': 36.094, 'fwi_class': 'high', 'fetched_at': '2026-06-30T14:33:50.422804Z'}",36.094,high
32,32,2025,46,46299,Sauliac-sur-Célé,7/1/2025 16:44,"  589,600.00 ",44.5211,1.7173,2025-07-01,"{'lat': 44.5211, 'lon': 1.7173, 'date': '2025-07-01', 'fwi': 36.793, 'fwi_class': 'high', 'fetched_at': '2026-06-30T14:33:50.570771Z'}",36.793,high
33,33,2025,35,35121,Gosné,4/16/2025 15:18,"  562,000.00 ",48.2492,-1.4606,2025-04-16,"{'lat': 48.2492, 'lon': -1.4606, 'date': '2025-04-16', 'fwi': 3.241, 'fwi_class': 'very_low', 'fetched_at': '2026-06-30T14:33:50.718979Z'}",3.241,very_low
34,34,2025,35,35211,Paimpont,7/17/2025 15:49,"  518,400.00 ",48.0327,-2.1793,2025-07-17,"{'lat': 48.0327, 'lon': -2.1793, 'date': '2025-07-17', 'fwi': 14.115, 'fwi_class': 'moderate', 'fetched_at': '2026-06-30T14:33:50.865346Z'}",14.115,moderate
35,35,2025,9,9328,Verdun,2/20/2025 14:11,"  510,000.00 ",42.8039,1.6943,2025-02-20,"{'lat': 42.8039, 'lon': 1.6943, 'date': '2025-02-20', 'fwi': 0.849, 'fwi_class': 'very_low', 'fetched_at': '2026-06-30T14:33:51.007775Z'}",0.849,very_low
36,36,2025,81,81182,Montredon-Labessonnié,8/16/2025 12:06,"  490,000.00 ",43.7233,2.3171,2025-08-16,"{'lat': 43.7233, 'lon': 2.3171, 'date': '2025-08-16', 'fwi': 51.259, 'fwi_class': 'extreme', 'fetched_at': '2026-06-30T14:33:51.149105Z'}",51.259,extreme
37,37,2025,2A,2A031,Bastelica,4/6/2025 16:00,"  448,500.00 ",41.9781,9.0553,2025-04-06,"{'lat': 41.9781, 'lon': 9.0553, 'date': '2025-04-06', 'fwi': 5.229, 'fwi_class': 'low', 'fetched_at': '2026-06-30T14:33:51.313901Z'}",5.229,low
38,38,2025,64,64477,Saint-Étienne-de-Baïgorry,2/21/2025 2:31,"  446,000.00 ",43.1792,-1.3543,2025-02-21,"{'lat': 43.1792, 'lon': -1.3543, 'date': '2025-02-21', 'fwi': 6.666, 'fwi_class': 'low', 'fetched_at': '2026-06-30T14:33:51.460720Z'}",6.666,low
39,39,2025,11,11425,Villegailhenc,7/31/2025 15:17,"  444,600.00 ",43.2728,2.3484,2025-07-31,"{'lat': 43.2728, 'lon': 2.3484, 'date': '2025-07-31', 'fwi': 52.761, 'fwi_class': 'extreme', 'fetched_at': '2026-06-30T14:33:51.621175Z'}",52.761,extreme
40,40,2025,9,9285,Seix,3/6/2025 11:54,"  440,000.00 ",42.8179,1.1495,2025-03-06,"{'lat': 42.8179, 'lon': 1.1495, 'date': '2025-03-06', 'fwi': 0.643, 'fwi_class': 'very_low', 'fetched_at': '2026-06-30T14:33:51.769488Z'}",0.643,very_low
41,41,2025,11,11262,Narbonne,6/29/2025 15:55,"  438,300.00 ",43.1493,3.0337,2025-06-29,"{'lat': 43.1493, 'lon': 3.0337, 'date': '2025-06-29', 'fwi': 45.355, 'fwi_class': 'very_high', 'fetched_at': '2026-06-30T14:33:51.912579Z'}",45.355,very_high
42,42,2025,2B,2B239,Poggio-d'Oletta,8/2/2025 16:15,"  430,400.00 ",42.6558,9.3566,2025-08-02,"{'lat': 42.6558, 'lon': 9.3566, 'date': '2025-08-02', 'fwi': 20.647, 'fwi_class': 'moderate', 'fetched_at': '2026-06-30T14:33:52.072683Z'}",20.647,moderate
44,44,2025,17,17477,Villiers-Couture,7/4/2025 14:32,"  414,600.00 ",45.9846,-0.1533,2025-07-04,"{'lat': 45.9846, 'lon': -0.1533, 'date': '2025-07-04', 'fwi': 50.303, 'fwi_class': 'extreme', 'fetched_at': '2026-06-30T14:33:52.359461Z'}",50.303,extreme
45,45,2025,36,36124,Migné,6/18/2025 17:08,"  390,000.00 ",46.7147,1.3003,2025-06-18,"{'lat': 46.7147, 'lon': 1.3003, 'date': '2025-06-18', 'fwi': 24.832, 'fwi_class': 'high', 'fetched_at': '2026-06-30T14:33:52.488526Z'}",24.832,high
46,46,2025,36,36004,Anjouin,7/2/2025 15:31,"  370,000.00 ",47.202,1.8077,2025-07-02,"{'lat': 47.202, 'lon': 1.8077, 'date': '2025-07-02', 'fwi': 58.67, 'fwi_class': 'extreme', 'fetched_at': '2026-06-30T14:33:52.627724Z'}",58.67,extreme
47,47,2025,87,87097,Val d'Issoire,7/8/2025 14:26,"  369,000.00 ",46.0884,0.9004,2025-07-08,"{'lat': 46.0884, 'lon': 0.9004, 'date': '2025-07-08', 'fwi': 11.658, 'fwi_class': 'moderate', 'fetched_at': '2026-06-30T14:33:52.773638Z'}",11.658,moderate
48,48,2025,45,45254,Poilly-lez-Gien,6/25/2025 15:39,"  355,200.00 ",47.6591,2.5906,2025-06-25,"{'lat': 47.6591, 'lon': 2.5906, 'date': '2025-06-25', 'fwi': 41.309, 'fwi_class': 'very_high', 'fetched_at': '2026-06-30T14:33:52.926250Z'}",41.309,very_high
49,49,2025,43,43123,Lorlanges,6/26/2025 15:27,"  354,300.00 ",45.3249,3.261,2025-06-26,"{'lat': 45.3249, 'lon': 3.261, 'date': '2025-06-26', 'fwi': 11.963, 'fwi_class': 'moderate', 'fetched_at': '2026-06-30T14:33:53.065187Z'}",11.963,moderate
50,50,2025,2B,2B185,Oletta,8/30/2025 12:44,"  345,000.00 ",42.6451,9.3453,2025-08-30,"{'lat': 42.6451, 'lon': 9.3453, 'date': '2025-08-30', 'fwi': 0.549, 'fwi_class': 'very_low', 'fetched_at': '2026-06-30T14:33:53.208739Z'}",0.549,very_low
51,51,2025,9,9325,Vaychis,12/11/2025 22:20,"  340,000.00 ",42.7452,1.8212,2025-12-11,"{'lat': 42.7452, 'lon': 1.8212, 'date': '2025-12-11', 'fwi': 2.634, 'fwi_class': 'very_low', 'fetched_at': '2026-06-30T14:33:53.360303Z'}",2.634,very_low
52,52,2025,34,34056,Castelnau-de-Guers,7/4/2025 12:27,"  336,200.00 ",43.436,3.4718,2025-07-04,"{'lat': 43.436, 'lon': 3.4718, 'date': '2025-07-04', 'fwi': 54.462, 'fwi_class': 'extreme', 'fetched_at': '2026-06-30T14:33:53.507568Z'}",54.462,extreme
53,53,2025,16,16023,Aunac-sur-Charente,6/27/2025 13:36,"  335,000.00 ",45.9253,0.2352,2025-06-27,"{'lat': 45.9253, 'lon': 0.2352, 'date': '2025-06-27', 'fwi': 23.498, 'fwi_class': 'high', 'fetched_at': '2026-06-30T14:33:53.653264Z'}",23.498,high
54,54,2025,45,45161,Griselles,6/25/2025 17:45,"  330,400.00 ",48.0755,2.8364,2025-06-25,"{'lat': 48.0755, 'lon': 2.8364, 'date': '2025-06-25', 'fwi': 42.925, 'fwi_class': 'very_high', 'fetched_at': '2026-06-30T14:33:53.795137Z'}",42.925,very_high
55,55,2025,79,79124,Les Forges,7/10/2025 18:24,"  330,000.00 ",46.5421,-0.0211,2025-07-10,"{'lat': 46.5421, 'lon': -0.0211, 'date': '2025-07-10', 'fwi': 49.627, 'fwi_class': 'very_high', 'fetched_at': '2026-06-30T14:33:53.940788Z'}",49.627,very_high
56,56,2025,23,23102,Ladapeyre,7/12/2025 13:41,"  317,000.00 ",46.2438,2.045,2025-07-12,"{'lat': 46.2438, 'lon': 2.045, 'date': '2025-07-12', 'fwi': 40.336, 'fwi_class': 'very_high', 'fetched_at': '2026-06-30T14:33:54.087984Z'}",40.336,very_high
57,57,2025,43,43132,Mazeyrat-d'Allier,7/12/2025 14:47,"  312,100.00 ",45.1314,3.5307,2025-07-12,"{'lat': 45.1314, 'lon': 3.5307, 'date': '2025-07-12', 'fwi': 20.308, 'fwi_class': 'moderate', 'fetched_at': '2026-06-30T14:33:54.231928Z'}",20.308,moderate
58,58,2025,4,4004,Allemagne-en-Provence,7/10/2025 13:48,"  312,000.00 ",43.7921,6.0257,2025-07-10,"{'lat': 43.7921, 'lon': 6.0257, 'date': '2025-07-10', 'fwi': 39.867, 'fwi_class': 'very_high', 'fetched_at': '2026-06-30T14:33:54.386135Z'}",39.867,very_high
60,60,2025,51,51487,Saint-Hilaire-le-Petit,7/2/2025 0:00,"  301,000.00 ",49.2636,4.386,2025-07-02,"{'lat': 49.2636, 'lon': 4.386, 'date': '2025-07-02', 'fwi': 42.01, 'fwi_class': 'very_high', 'fetched_at': '2026-06-30T14:33:54.684552Z'}",42.01,very_high
61,61,2025,2B,2B341,Venaco,9/16/2025 19:19,"  300,100.00 ",42.2129,9.1455,2025-09-16,"{'lat': 42.2129, 'lon': 9.1455, 'date': '2025-09-16', 'fwi': 25.351, 'fwi_class': 'high', 'fetched_at': '2026-06-30T14:33:54.824715Z'}",25.351,high
62,62,2025,2B,2B007,Albertacce,7/7/2025 14:57,"  300,000.00 ",42.3145,8.9277,2025-07-07,"{'lat': 42.3145, 'lon': 8.9277, 'date': '2025-07-07', 'fwi': 9.341, 'fwi_class': 'low', 'fetched_at': '2026-06-30T14:33:54.968117Z'}",9.341,low
63,63,2025,2A,2A282,Soccia,10/1/2025 20:28,"  300,000.00 ",42.2065,8.9309,2025-10-01,"{'lat': 42.2065, 'lon': 8.9309, 'date': '2025-10-01', 'fwi': 5.941, 'fwi_class': 'low', 'fetched_at': '2026-06-30T14:33:55.105569Z'}",5.941,low
64,64,2025,11,11040,Bizanet,6/29/2025 15:55,"  296,960.00 ",43.1445,2.8704,2025-06-29,"{'lat': 43.1445, 'lon': 2.8704, 'date': '2025-06-29', 'fwi': 57.361, 'fwi_class': 'extreme', 'fetched_at': '2026-06-30T14:33:55.255949Z'}",57.361,extreme
65,65,2025,86,86064,Château-Garnier,7/5/2025 16:39,"  295,700.00 ",46.2589,0.4424,2025-07-05,"{'lat': 46.2589, 'lon': 0.4424, 'date': '2025-07-05', 'fwi': 30.982, 'fwi_class': 'high', 'fetched_at': '2026-06-30T14:33:55.405677Z'}",30.982,high
66,66,2025,23,23154,Pionnat,8/12/2025 14:47,"  291,000.00 ",46.1666,2.0192,2025-08-12,"{'lat': 46.1666, 'lon': 2.0192, 'date': '2025-08-12', 'fwi': 57.646, 'fwi_class': 'extreme', 'fetched_at': '2026-06-30T14:33:55.552951Z'}",57.646,extreme
67,67,2025,7,7329,Valgorge,7/17/2025 11:47,"  284,500.00 ",44.5918,4.1118,2025-07-17,"{'lat': 44.5918, 'lon': 4.1118, 'date': '2025-07-17', 'fwi': 47.211, 'fwi_class': 'very_high', 'fetched_at': '2026-06-30T14:33:55.695755Z'}",47.211,very_high
68,68,2025,30,30221,Roquemaure,7/1/2025 14:30,"  282,000.00 ",44.0443,4.7598,2025-07-01,"{'lat': 44.0443, 'lon': 4.7598, 'date': '2025-07-01', 'fwi': 73.233, 'fwi_class': 'extreme', 'fetched_at': '2026-06-30T14:33:55.855376Z'}",73.233,extreme
70,70,2025,45,45250,Pers-en-Gâtinais,6/24/2025 16:00,"  273,300.00 ",48.116,2.9026,2025-06-24,"{'lat': 48.116, 'lon': 2.9026, 'date': '2025-06-24', 'fwi': 32.57, 'fwi_class': 'high', 'fetched_at': '2026-06-30T14:33:56.149157Z'}",32.57,high
71,71,2025,33,33229,Lanton,8/13/2025 16:05,"  263,000.00 ",44.7719,-0.9799,2025-08-13,"{'lat': 44.7719, 'lon': -0.9799, 'date': '2025-08-13', 'fwi': 28.259, 'fwi_class': 'high', 'fetched_at': '2026-06-30T14:33:56.290392Z'}",28.259,high
72,72,2025,41,41238,Savigny-sur-Braye,7/11/2025 15:58,"  260,200.00 ",47.8666,0.838,2025-07-11,"{'lat': 47.8666, 'lon': 0.838, 'date': '2025-07-11', 'fwi': 34.942, 'fwi_class': 'high', 'fetched_at': '2026-06-30T14:33:56.438497Z'}",34.942,high
73,73,2025,6,6062,Fontan,3/6/2025 13:10,"  258,200.00 ",44.0213,7.5527,2025-03-06,"{'lat': 44.0213, 'lon': 7.5527, 'date': '2025-03-06', 'fwi': 4.219, 'fwi_class': 'very_low', 'fetched_at': '2026-06-30T14:33:56.576004Z'}",4.219,very_low
74,74,2025,41,41013,Bauzy,7/11/2025 11:26,"  250,000.00 ",47.5244,1.6099,2025-07-11,"{'lat': 47.5244, 'lon': 1.6099, 'date': '2025-07-11', 'fwi': 32.741, 'fwi_class': 'high', 'fetched_at': '2026-06-30T14:33:56.726854Z'}",32.741,high
75,75,2025,11,11069,Carcassonne,6/30/2025 16:34,"  247,700.00 ",43.2078,2.3491,2025-06-30,"{'lat': 43.2078, 'lon': 2.3491, 'date': '2025-06-30', 'fwi': 72.785, 'fwi_class': 'extreme', 'fetched_at': '2026-06-30T14:33:56.874023Z'}",72.785,extreme
76,76,2025,83,83061,Fréjus,7/17/2025 18:23,"  242,500.00 ",43.4553,6.7848,2025-07-17,"{'lat': 43.4553, 'lon': 6.7848, 'date': '2025-07-17', 'fwi': 14.617, 'fwi_class': 'moderate', 'fetched_at': '2026-06-30T14:33:57.038166Z'}",14.617,moderate
77,77,2025,83,83142,Trigance,7/20/2025 14:01,"  241,800.00 ",43.7365,6.438,2025-07-20,"{'lat': 43.7365, 'lon': 6.438, 'date': '2025-07-20', 'fwi': 42.392, 'fwi_class': 'very_high', 'fetched_at': '2026-06-30T14:33:57.208773Z'}",42.392,very_high
78,78,2025,18,18149,Méry-ès-Bois,7/10/2025 14:35,"  240,700.00 ",47.3047,2.3817,2025-07-10,"{'lat': 47.3047, 'lon': 2.3817, 'date': '2025-07-10', 'fwi': 19.677, 'fwi_class': 'moderate', 'fetched_at': '2026-06-30T14:33:57.385445Z'}",19.677,moderate
79,79,2025,86,86135,Liniers,7/11/2025 15:50,"  224,000.00 ",46.6193,0.5292,2025-07-11,"{'lat': 46.6193, 'lon': 0.5292, 'date': '2025-07-11', 'fwi': 55.099, 'fwi_class': 'extreme', 'fetched_at': '2026-06-30T14:33:57.544953Z'}",55.099,extreme
80,80,2025,6,6050,Coursegoules,3/3/2025 13:39,"  223,700.00 ",43.7898,7.0384,2025-03-03,"{'lat': 43.7898, 'lon': 7.0384, 'date': '2025-03-03', 'fwi': 9.313, 'fwi_class': 'low', 'fetched_at': '2026-06-30T14:33:57.693712Z'}",9.313,low
81,81,2025,32,32285,Montesquiou,8/13/2025 17:12,"  220,000.00 ",43.5728,0.3292,2025-08-13,"{'lat': 43.5728, 'lon': 0.3292, 'date': '2025-08-13', 'fwi': 58.533, 'fwi_class': 'extreme', 'fetched_at': '2026-06-30T14:33:57.845441Z'}",58.533,extreme
82,82,2025,12,12069,Combret,8/17/2025 17:35,"  219,200.00 ",43.8333,2.6871,2025-08-17,"{'lat': 43.8333, 'lon': 2.6871, 'date': '2025-08-17', 'fwi': 57.377, 'fwi_class': 'extreme', 'fetched_at': '2026-06-30T14:33:58.000127Z'}",57.377,extreme
83,83,2025,45,45245,Ouzouer-sur-Trézée,7/2/2025 15:26,"  214,700.00 ",47.6708,2.8138,2025-07-02,"{'lat': 47.6708, 'lon': 2.8138, 'date': '2025-07-02', 'fwi': 57.246, 'fwi_class': 'extreme', 'fetched_at': '2026-06-30T14:33:58.148174Z'}",57.246,extreme
84,84,2025,86,86141,Magné,7/16/2025 15:25,"  211,000.00 ",46.3472,0.3955,2025-07-16,"{'lat': 46.3472, 'lon': 0.3955, 'date': '2025-07-16', 'fwi': 30.552, 'fwi_class': 'high', 'fetched_at': '2026-06-30T14:33:58.324283Z'}",30.552,high
85,85,2025,58,58236,Sainte-Colombe-des-Bois,7/2/2025 15:23,"  210,000.00 ",47.3202,3.1511,2025-07-02,"{'lat': 47.3202, 'lon': 3.1511, 'date': '2025-07-02', 'fwi': 61.756, 'fwi_class': 'extreme', 'fetched_at': '2026-06-30T14:33:59.484861Z'}",61.756,extreme
86,86,2025,87,87007,Balledent,7/4/2025 16:26,"  209,000.00 ",46.1077,1.2208,2025-07-04,"{'lat': 46.1077, 'lon': 1.2208, 'date': '2025-07-04', 'fwi': 41.176, 'fwi_class': 'very_high', 'fetched_at': '2026-06-30T14:33:59.640014Z'}",41.176,very_high
87,87,2025,79,79252,Saint-Généroux,7/11/2025 14:52,"  207,000.00 ",46.8868,-0.1484,2025-07-11,"{'lat': 46.8868, 'lon': -0.1484, 'date': '2025-07-11', 'fwi': 62.135, 'fwi_class': 'extreme', 'fetched_at': '2026-06-30T14:33:59.779991Z'}",62.135,extreme
88,88,2025,16,16164,Hiesse,7/5/2025 18:25,"  206,000.00 ",46.0494,0.5814,2025-07-05,"{'lat': 46.0494, 'lon': 0.5814, 'date': '2025-07-05', 'fwi': 33.33, 'fwi_class': 'high', 'fetched_at': '2026-06-30T14:33:59.934831Z'}",33.33,high
89,89,2025,41,41073,Danzé,6/25/2025 13:37,"  204,800.00 ",47.904,1.0091,2025-06-25,"{'lat': 47.904, 'lon': 1.0091, 'date': '2025-06-25', 'fwi': 42.553, 'fwi_class': 'very_high', 'fetched_at': '2026-06-30T14:34:00.077850Z'}",42.553,very_high
90,90,2025,45,45083,Château-Renard,6/24/2025 14:28,"  201,100.00 ",47.9299,2.9166,2025-06-24,"{'lat': 47.9299, 'lon': 2.9166, 'date': '2025-06-24', 'fwi': 29.738, 'fwi_class': 'high', 'fetched_at': '2026-06-30T14:34:00.237441Z'}",29.738,high
91,91,2025,2B,2B283,Solaro,6/18/2025 9:02,"  200,000.00 ",41.8789,9.3181,2025-06-18,"{'lat': 41.8789, 'lon': 9.3181, 'date': '2025-06-18', 'fwi': 5.475, 'fwi_class': 'low', 'fetched_at': '2026-06-30T14:34:00.387525Z'}",5.475,low
92,92,2025,45,45281,Saint-Hilaire-les-Andrésis,7/5/2025 16:40,"  200,000.00 ",48.0527,3.0174,2025-07-05,"{'lat': 48.0527, 'lon': 3.0174, 'date': '2025-07-05', 'fwi': 41.169, 'fwi_class': 'very_high', 'fetched_at': '2026-06-30T14:34:00.534866Z'}",41.169,very_high
93,93,2025,63,63102,Châteldon,8/15/2025 15:17,"  198,900.00 ",45.9734,3.5487,2025-08-15,"{'lat': 45.9734, 'lon': 3.5487, 'date': '2025-08-15', 'fwi': 34.697, 'fwi_class': 'high', 'fetched_at': '2026-06-30T14:34:00.678163Z'}",34.697,high
94,94,2025,87,87183,Saint-Sylvestre,8/16/2025 1:07,"  198,000.00 ",45.9965,1.3642,2025-08-16,"{'lat': 45.9965, 'lon': 1.3642, 'date': '2025-08-16', 'fwi': 50.546, 'fwi_class': 'extreme', 'fetched_at': '2026-06-30T14:34:00.835438Z'}",50.546,extreme
95,95,2025,7,7213,Saint-André-Lachamp,8/7/2025 15:51,"  197,100.00 ",44.5057,4.155,2025-08-07,"{'lat': 44.5057, 'lon': 4.155, 'date': '2025-08-07', 'fwi': 45.266, 'fwi_class': 'very_high', 'fetched_at': '2026-06-30T14:34:00.981158Z'}",45.266,very_high
96,96,2025,7,7144,Loubaresse,4/8/2025 11:18,"  196,500.00 ",44.5921,4.0555,2025-04-08,"{'lat': 44.5921, 'lon': 4.0555, 'date': '2025-04-08', 'fwi': 5.993, 'fwi_class': 'low', 'fetched_at': '2026-06-30T14:34:01.129277Z'}",5.993,low
97,97,2025,2B,2B251,Prunelli-di-Fiumorbo,7/17/2025 12:57,"  185,000.00 ",42.0069,9.3749,2025-07-17,"{'lat': 42.0069, 'lon': 9.3749, 'date': '2025-07-17', 'fwi': 29.313, 'fwi_class': 'high', 'fetched_at': '2026-06-30T14:34:01.272393Z'}",29.313,high
98,98,2025,16,16300,Val-de-Bonnieure,7/5/2025 16:20,"  180,000.00 ",45.8451,0.2901,2025-07-05,"{'lat': 45.8451, 'lon': 0.2901, 'date': '2025-07-05', 'fwi': 40.534, 'fwi_class': 'very_high', 'fetched_at': '2026-06-30T14:34:01.431717Z'}",40.534,very_high
99,99,2025,2B,2B260,Riventosa,9/20/2025 14:41,"  175,000.00 ",42.2484,9.2061,2025-09-20,"{'lat': 42.2484, 'lon': 9.2061, 'date': '2025-09-20', 'fwi': 39.67, 'fwi_class': 'very_high', 'fetched_at': '2026-06-30T14:34:01.580484Z'}",39.67,very_high
100,100,2025,34,34054,Cassagnoles,10/11/2025 15:00,"  174,071.00 ",43.3994,2.5994,2025-10-11,"{'lat': 43.3994, 'lon': 2.5994, 'date': '2025-10-11', 'fwi': 25.766, 'fwi_class': 'high', 'fetched_at': '2026-06-30T14:34:01.741334Z'}",25.766,high
101,101,2025,3,3041,Le Brethon,7/4/2025 15:02,"  172,407.00 ",46.5893,2.7136,2025-07-04,"{'lat': 46.5893, 'lon': 2.7136, 'date': '2025-07-04', 'fwi': 35.025, 'fwi_class': 'high', 'fetched_at': '2026-06-30T14:34:01.895100Z'}",35.025,high
102,102,2025,89,89060,Bussy-le-Repos,7/11/2025 15:25,"  170,400.00 ",48.0613,3.217,2025-07-11,"{'lat': 48.0613, 'lon': 3.217, 'date': '2025-07-11', 'fwi': 26.056, 'fwi_class': 'high', 'fetched_at': '2026-06-30T14:34:02.038822Z'}",26.056,high
103,103,2025,64,64160,Cambo-les-Bains,3/9/2025 19:14,"  170,000.00 ",43.3622,-1.3886,2025-03-09,"{'lat': 43.3622, 'lon': -1.3886, 'date': '2025-03-09', 'fwi': 0.542, 'fwi_class': 'very_low', 'fetched_at': '2026-06-30T14:34:02.177511Z'}",0.542,very_low
104,104,2025,65,65042,Asté,2/20/2025 18:02,"  166,200.00 ",43.0114,0.2127,2025-02-20,"{'lat': 43.0114, 'lon': 0.2127, 'date': '2025-02-20', 'fwi': 0.766, 'fwi_class': 'very_low', 'fetched_at': '2026-06-30T14:34:02.312782Z'}",0.766,very_low
106,106,2025,33,33255,Lucmau,7/11/2025 13:29,"  160,000.00 ",44.2955,-0.3364,2025-07-11,"{'lat': 44.2955, 'lon': -0.3364, 'date': '2025-07-11', 'fwi': 38.985, 'fwi_class': 'very_high', 'fetched_at': '2026-06-30T14:34:02.608575Z'}",38.985,very_high
107,107,2025,87,87108,Nouic,8/17/2025 11:58,"  160,000.00 ",46.0552,0.9162,2025-08-17,"{'lat': 46.0552, 'lon': 0.9162, 'date': '2025-08-17', 'fwi': 44.385, 'fwi_class': 'very_high', 'fetched_at': '2026-06-30T14:34:02.753317Z'}",44.385,very_high
108,108,2025,86,86264,Sommières-du-Clain,6/30/2025 14:30,"  156,600.00 ",46.278,0.3721,2025-06-30,"{'lat': 46.278, 'lon': 0.3721, 'date': '2025-06-30', 'fwi': 36.88, 'fwi_class': 'high', 'fetched_at': '2026-06-30T14:34:02.900095Z'}",36.88,high
109,109,2025,33,33233,Laruscade,8/9/2025 17:22,"  149,600.00 ",45.1206,-0.3394,2025-08-09,"{'lat': 45.1206, 'lon': -0.3394, 'date': '2025-08-09', 'fwi': 55.915, 'fwi_class': 'extreme', 'fetched_at': '2026-06-30T14:34:03.049022Z'}",55.915,extreme
110,110,2025,2B,2B275,Sermano,9/20/2025 18:45,"  147,100.00 ",42.3155,9.2637,2025-09-20,"{'lat': 42.3155, 'lon': 9.2637, 'date': '2025-09-20', 'fwi': 28.838, 'fwi_class': 'high', 'fetched_at': '2026-06-30T14:34:03.197112Z'}",28.838,high
111,111,2025,86,86037,Brigueil-le-Chantre,7/11/2025 12:43,"  145,000.00 ",46.3849,1.0891,2025-07-11,"{'lat': 46.3849, 'lon': 1.0891, 'date': '2025-07-11', 'fwi': 62.695, 'fwi_class': 'extreme', 'fetched_at': '2026-06-30T14:34:03.349014Z'}",62.695,extreme
112,112,2025,2B,2B059,Canavaggia,10/26/2025 21:40,"  140,000.00 ",42.4987,9.2341,2025-10-26,"{'lat': 42.4987, 'lon': 9.2341, 'date': '2025-10-26', 'fwi': 19.255, 'fwi_class': 'moderate', 'fetched_at': '2026-06-30T14:34:03.497695Z'}",19.255,moderate
113,113,2025,9,9189,Mérens-les-Vals,9/28/2025 0:00,"  137,300.00 ",42.633,1.8227,2025-09-28,"{'lat': 42.633, 'lon': 1.8227, 'date': '2025-09-28', 'fwi': 6.283, 'fwi_class': 'low', 'fetched_at': '2026-06-30T14:34:03.641655Z'}",6.283,low
114,114,2025,6,6149,La Trinité,6/18/2025 14:39,"  134,200.00 ",43.7415,7.3413,2025-06-18,"{'lat': 43.7415, 'lon': 7.3413, 'date': '2025-06-18', 'fwi': 9.8, 'fwi_class': 'low', 'fetched_at': '2026-06-30T14:34:03.777547Z'}",9.8,low
115,115,2025,38,38108,Choranche,8/14/2025 17:48,"  129,500.00 ",45.0744,5.399,2025-08-14,"{'lat': 45.0744, 'lon': 5.399, 'date': '2025-08-14', 'fwi': 30.727, 'fwi_class': 'high', 'fetched_at': '2026-06-30T14:34:03.909344Z'}",30.727,high
116,116,2025,7,7153,Mayres,3/6/2025 9:58,"  129,000.00 ",44.6646,4.1001,2025-03-06,"{'lat': 44.6646, 'lon': 4.1001, 'date': '2025-03-06', 'fwi': 1.961, 'fwi_class': 'very_low', 'fetched_at': '2026-06-30T14:34:04.041252Z'}",1.961,very_low
117,117,2025,17,17452,La Tremblade,6/18/2025 15:54,"  125,550.00 ",45.7481,-1.1749,2025-06-18,"{'lat': 45.7481, 'lon': -1.1749, 'date': '2025-06-18', 'fwi': 35.041, 'fwi_class': 'high', 'fetched_at': '2026-06-30T14:34:04.187803Z'}",35.041,high
118,118,2025,34,34255,Saint-Gély-du-Fesc,7/7/2025 13:38,"  125,409.00 ",43.6897,3.81,2025-07-07,"{'lat': 43.6897, 'lon': 3.81, 'date': '2025-07-07', 'fwi': 75.066, 'fwi_class': 'extreme', 'fetched_at': '2026-06-30T14:34:04.335270Z'}",75.066,extreme
119,119,2025,26,26086,Châtillon-en-Diois,8/27/2025 15:07,"  124,300.00 ",44.7299,5.5366,2025-08-27,"{'lat': 44.7299, 'lon': 5.5366, 'date': '2025-08-27', 'fwi': 0.055, 'fwi_class': 'very_low', 'fetched_at': '2026-06-30T14:34:04.481289Z'}",0.055,very_low
120,120,2025,24,24495,Saint-Romain-de-Monpazier,3/8/2025 18:44,"  123,000.00 ",44.7209,0.8839,2025-03-08,"{'lat': 44.7209, 'lon': 0.8839, 'date': '2025-03-08', 'fwi': 11.643, 'fwi_class': 'moderate', 'fetched_at': '2026-06-30T14:34:04.636985Z'}",11.643,moderate
121,121,2025,2B,2B356,Zalana,9/20/2025 12:44,"  121,800.00 ",42.253,9.3837,2025-09-20,"{'lat': 42.253, 'lon': 9.3837, 'date': '2025-09-20', 'fwi': 36.623, 'fwi_class': 'high', 'fetched_at': '2026-06-30T14:34:04.794437Z'}",36.623,high
122,122,2025,81,81121,Lacabarède,8/12/2025 15:32,"  120,000.00 ",43.4483,2.5924,2025-08-12,"{'lat': 43.4483, 'lon': 2.5924, 'date': '2025-08-12', 'fwi': 45.402, 'fwi_class': 'very_high', 'fetched_at': '2026-06-30T14:34:04.966026Z'}",45.402,very_high
123,123,2025,43,43090,Esplantas-Vazeilles,8/12/2025 13:09,"  119,500.00 ",44.9038,3.5586,2025-08-12,"{'lat': 44.9038, 'lon': 3.5586, 'date': '2025-08-12', 'fwi': 38.778, 'fwi_class': 'very_high', 'fetched_at': '2026-06-30T14:34:05.151536Z'}",38.778,very_high
124,124,2025,52,52130,Cirfontaines-en-Azois,3/8/2025 15:49,"  116,600.00 ",48.1064,4.8659,2025-03-08,"{'lat': 48.1064, 'lon': 4.8659, 'date': '2025-03-08', 'fwi': 5.102, 'fwi_class': 'very_low', 'fetched_at': '2026-06-30T14:34:05.313296Z'}",5.102,very_low
125,125,2025,9,9228,Perles-et-Castelet,8/14/2025 12:35,"  116,000.00 ",42.714,1.7767,2025-08-14,"{'lat': 42.714, 'lon': 1.7767, 'date': '2025-08-14', 'fwi': 4.741, 'fwi_class': 'very_low', 'fetched_at': '2026-06-30T14:34:05.555850Z'}",4.741,very_low
126,126,2025,12,12082,La Couvertoirade,6/22/2025 12:11,"  115,000.00 ",43.9307,3.2848,2025-06-22,"{'lat': 43.9307, 'lon': 3.2848, 'date': '2025-06-22', 'fwi': 32.993, 'fwi_class': 'high', 'fetched_at': '2026-06-30T14:34:05.701332Z'}",32.993,high
127,127,2025,38,38347,Roybon,4/5/2025 16:07,"  114,000.00 ",45.2435,5.2547,2025-04-05,"{'lat': 45.2435, 'lon': 5.2547, 'date': '2025-04-05', 'fwi': 2.885, 'fwi_class': 'very_low', 'fetched_at': '2026-06-30T14:34:05.849043Z'}",2.885,very_low
128,128,2025,41,41296,Vouzon,6/30/2025 15:08,"  113,200.00 ",47.6347,2.0348,2025-06-30,"{'lat': 47.6347, 'lon': 2.0348, 'date': '2025-06-30', 'fwi': 29.98, 'fwi_class': 'high', 'fetched_at': '2026-06-30T14:34:06.013440Z'}",29.98,high
131,131,2025,86,86203,Queaux,8/13/2025 6:16,"  110,000.00 ",46.3104,0.6356,2025-08-13,"{'lat': 46.3104, 'lon': 0.6356, 'date': '2025-08-13', 'fwi': 48.783, 'fwi_class': 'very_high', 'fetched_at': '2026-06-30T14:34:06.455300Z'}",48.783,very_high
132,132,2025,84,84064,Lapalud,7/9/2025 16:19,"  109,800.00 ",44.3073,4.6821,2025-07-09,"{'lat': 44.3073, 'lon': 4.6821, 'date': '2025-07-09', 'fwi': 77.619, 'fwi_class': 'extreme', 'fetched_at': '2026-06-30T14:34:06.595480Z'}",77.619,extreme
133,133,2025,7,7270,Saint-Martin-sur-Lavezon,4/7/2025 20:19,"  109,600.00 ",44.6383,4.6526,2025-04-07,"{'lat': 44.6383, 'lon': 4.6526, 'date': '2025-04-07', 'fwi': 9.238, 'fwi_class': 'low', 'fetched_at': '2026-06-30T14:34:06.740476Z'}",9.238,low
134,134,2025,13,13014,Berre-l'Étang,6/24/2025 16:16,"  109,000.00 ",43.4976,5.1596,2025-06-24,"{'lat': 43.4976, 'lon': 5.1596, 'date': '2025-06-24', 'fwi': 58.614, 'fwi_class': 'extreme', 'fetched_at': '2026-06-30T14:34:06.883344Z'}",58.614,extreme
135,135,2025,6,6086,Moulinet,7/7/2025 16:26,"  105,800.00 ",43.9503,7.4128,2025-07-07,"{'lat': 43.9503, 'lon': 7.4128, 'date': '2025-07-07', 'fwi': 16.178, 'fwi_class': 'moderate', 'fetched_at': '2026-06-30T14:34:07.025624Z'}",16.178,moderate
137,137,2025,16,16192,Terres-de-Haute-Charente,7/5/2025 12:52,"  100,050.00 ",45.8874,0.583,2025-07-05,"{'lat': 45.8874, 'lon': 0.583, 'date': '2025-07-05', 'fwi': 34.278, 'fwi_class': 'high', 'fetched_at': '2026-06-30T14:34:07.326883Z'}",34.278,high
138,138,2025,45,45087,Châtillon-sur-Loire,7/5/2025 0:00,"  100,000.00 ",47.5754,2.7435,2025-07-05,"{'lat': 47.5754, 'lon': 2.7435, 'date': '2025-07-05', 'fwi': 50.832, 'fwi_class': 'extreme', 'fetched_at': '2026-06-30T14:34:07.469877Z'}",50.832,extreme
139,139,2025,23,23092,Glénic,7/10/2025 13:04,"  100,000.00 ",46.227,1.9376,2025-07-10,"{'lat': 46.227, 'lon': 1.9376, 'date': '2025-07-10', 'fwi': 36.624, 'fwi_class': 'high', 'fetched_at': '2026-06-30T14:34:07.604952Z'}",36.624,high
140,140,2025,19,19007,Altillac,11/14/2025 0:22,"  100,000.00 ",44.9774,1.8683,2025-11-14,"{'lat': 44.9774, 'lon': 1.8683, 'date': '2025-11-14', 'fwi': 5.373, 'fwi_class': 'low', 'fetched_at': '2026-06-30T14:34:07.756907Z'}",5.373,low
141,141,2025,9,9113,Ercé,11/14/2025 5:54,"  100,000.00 ",42.8369,1.3064,2025-11-14,"{'lat': 42.8369, 'lon': 1.3064, 'date': '2025-11-14', 'fwi': 0.131, 'fwi_class': 'very_low', 'fetched_at': '2026-06-30T14:34:07.895754Z'}",0.131,very_low
142,142,2025,24,24528,Sceau-Saint-Angel,7/11/2025 17:57,"  99,000.00 ",45.4819,0.6755,2025-07-11,"{'lat': 45.4819, 'lon': 0.6755, 'date': '2025-07-11', 'fwi': 38.278, 'fwi_class': 'very_high', 'fetched_at': '2026-06-30T14:34:08.047335Z'}",38.278,very_high
143,143,2025,12,12168,Nant,8/1/2025 11:05,"  98,600.00 ",44.0204,3.2887,2025-08-01,"{'lat': 44.0204, 'lon': 3.2887, 'date': '2025-08-01', 'fwi': 29.76, 'fwi_class': 'high', 'fetched_at': '2026-06-30T14:34:08.202392Z'}",29.76,high
144,144,2025,7,7198,Rompon,8/22/2025 14:25,"  97,000.00 ",44.768,4.7285,2025-08-22,"{'lat': 44.768, 'lon': 4.7285, 'date': '2025-08-22', 'fwi': 27.573, 'fwi_class': 'high', 'fetched_at': '2026-06-30T14:34:08.357124Z'}",27.573,high
145,145,2025,16,16353,Saint-Sornin,7/9/2025 14:03,"  92,000.00 ",45.6954,0.4453,2025-07-09,"{'lat': 45.6954, 'lon': 0.4453, 'date': '2025-07-09', 'fwi': 14.133, 'fwi_class': 'moderate', 'fetched_at': '2026-06-30T14:34:08.514326Z'}",14.133,moderate
146,146,2025,13,13058,Maussane-les-Alpilles,7/28/2025 23:25,"  91,940.00 ",43.7158,4.838,2025-07-28,"{'lat': 43.7158, 'lon': 4.838, 'date': '2025-07-28', 'fwi': 99.313, 'fwi_class': 'extreme', 'fetched_at': '2026-06-30T14:34:08.651746Z'}",99.313,extreme
147,147,2025,16,16285,Rougnac,8/12/2025 16:57,"  91,220.00 ",45.5376,0.3539,2025-08-12,"{'lat': 45.5376, 'lon': 0.3539, 'date': '2025-08-12', 'fwi': 36.039, 'fwi_class': 'high', 'fetched_at': '2026-06-30T14:34:08.796331Z'}",36.039,high
148,148,2025,64,64092,Banca,3/19/2025 15:35,"  90,802.00 ",43.0919,-1.3794,2025-03-19,"{'lat': 43.0919, 'lon': -1.3794, 'date': '2025-03-19', 'fwi': 0.201, 'fwi_class': 'very_low', 'fetched_at': '2026-06-30T14:34:08.948004Z'}",0.201,very_low
149,149,2025,24,24541,Soudat,7/10/2025 17:06,"  90,000.00 ",45.6232,0.568,2025-07-10,"{'lat': 45.6232, 'lon': 0.568, 'date': '2025-07-10', 'fwi': 34.681, 'fwi_class': 'high', 'fetched_at': '2026-06-30T14:34:09.083104Z'}",34.681,high
150,150,2025,86,86253,Sanxay,7/11/2025 19:00,"  90,000.00 ",46.4963,-0.0057,2025-07-11,"{'lat': 46.4963, 'lon': -0.0057, 'date': '2025-07-11', 'fwi': 75.197, 'fwi_class': 'extreme', 'fetched_at': '2026-06-30T14:34:09.228103Z'}",75.197,extreme
151,151,2025,2B,2B143,Linguizzetta,9/20/2025 12:44,"  90,000.00 ",42.2144,9.5014,2025-09-20,"{'lat': 42.2144, 'lon': 9.5014, 'date': '2025-09-20', 'fwi': 23.232, 'fwi_class': 'high', 'fetched_at': '2026-06-30T14:34:09.368826Z'}",23.232,high
152,152,2025,84,84107,Saint-Christol,8/7/2025 10:47,"  88,900.00 ",44.0216,5.4923,2025-08-07,"{'lat': 44.0216, 'lon': 5.4923, 'date': '2025-08-07', 'fwi': 42.424, 'fwi_class': 'very_high', 'fetched_at': '2026-06-30T14:34:09.524048Z'}",42.424,very_high
153,153,2025,11,11212,Mailhac,6/25/2025 16:27,"  88,140.00 ",43.3067,2.8283,2025-06-25,"{'lat': 43.3067, 'lon': 2.8283, 'date': '2025-06-25', 'fwi': 53.89, 'fwi_class': 'extreme', 'fetched_at': '2026-06-30T14:34:09.668513Z'}",53.89,extreme
154,154,2025,34,34162,Montagnac,8/5/2025 21:28,"  85,105.00 ",43.4709,3.5067,2025-08-05,"{'lat': 43.4709, 'lon': 3.5067, 'date': '2025-08-05', 'fwi': 101.033, 'fwi_class': 'extreme', 'fetched_at': '2026-06-30T14:34:09.802419Z'}",101.033,extreme
155,155,2025,2B,2B138,Lavatoggio,1/14/2025 8:24,"  85,000.00 ",42.5754,8.8624,2025-01-14,"{'lat': 42.5754, 'lon': 8.8624, 'date': '2025-01-14', 'fwi': 0.527, 'fwi_class': 'very_low', 'fetched_at': '2026-06-30T14:34:09.951600Z'}",0.527,very_low
156,156,2025,11,11185,Lagrasse,6/29/2025 3:54,"  84,200.00 ",43.1048,2.5914,2025-06-29,"{'lat': 43.1048, 'lon': 2.5914, 'date': '2025-06-29', 'fwi': 49.717, 'fwi_class': 'very_high', 'fetched_at': '2026-06-30T14:34:10.101321Z'}",49.717,very_high
157,157,2025,34,34113,Gigean,7/8/2025 17:47,"  84,058.00 ",43.4953,3.7242,2025-07-08,"{'lat': 43.4953, 'lon': 3.7242, 'date': '2025-07-08', 'fwi': 68.307, 'fwi_class': 'extreme', 'fetched_at': '2026-06-30T14:34:10.243513Z'}",68.307,extreme
158,158,2025,11,11285,Peyriac-de-Mer,11/21/2025 13:10,"  83,900.00 ",43.0899,2.9547,2025-11-21,"{'lat': 43.0899, 'lon': 2.9547, 'date': '2025-11-21', 'fwi': 35.578, 'fwi_class': 'high', 'fetched_at': '2026-06-30T14:34:10.395587Z'}",35.578,high
159,159,2025,40,40333,Ygos-Saint-Saturnin,8/4/2025 12:04,"  81,500.00 ",43.9934,-0.7297,2025-08-04,"{'lat': 43.9934, 'lon': -0.7297, 'date': '2025-08-04', 'fwi': 36.384, 'fwi_class': 'high', 'fetched_at': '2026-06-30T14:34:10.541468Z'}",36.384,high
160,160,2025,13,13071,Les Pennes-Mirabeau,7/28/2025 16:40,"  80,500.00 ",43.4005,5.3222,2025-07-28,"{'lat': 43.4005, 'lon': 5.3222, 'date': '2025-07-28', 'fwi': 90.549, 'fwi_class': 'extreme', 'fetched_at': '2026-06-30T14:34:10.694262Z'}",90.549,extreme
161,161,2025,24,24109,La Chapelle-Grésignac,7/18/2025 16:15,"  80,200.00 ",45.392,0.3387,2025-07-18,"{'lat': 45.392, 'lon': 0.3387, 'date': '2025-07-18', 'fwi': 33.163, 'fwi_class': 'high', 'fetched_at': '2026-06-30T14:34:10.840374Z'}",33.163,high
162,162,2025,60,60241,Fontaine-Chaalis,5/1/2025 16:15,"  80,000.00 ",49.1584,2.6602,2025-05-01,"{'lat': 49.1584, 'lon': 2.6602, 'date': '2025-05-01', 'fwi': 17.399, 'fwi_class': 'moderate', 'fetched_at': '2026-06-30T14:34:10.989327Z'}",17.399,moderate
163,163,2025,58,58001,Achun,7/2/2025 11:54,"  80,000.00 ",47.1317,3.6605,2025-07-02,"{'lat': 47.1317, 'lon': 3.6605, 'date': '2025-07-02', 'fwi': 43.28, 'fwi_class': 'very_high', 'fetched_at': '2026-06-30T14:34:11.134668Z'}",43.28,very_high
164,164,2025,24,24139,Coursac,7/4/2025 11:59,"  80,000.00 ",45.131,0.645,2025-07-04,"{'lat': 45.131, 'lon': 0.645, 'date': '2025-07-04', 'fwi': 27.795, 'fwi_class': 'high', 'fetched_at': '2026-06-30T14:34:11.290372Z'}",27.795,high
165,165,2025,16,16065,Brillac,7/10/2025 18:41,"  80,000.00 ",46.0708,0.7651,2025-07-10,"{'lat': 46.0708, 'lon': 0.7651, 'date': '2025-07-10', 'fwi': 57.212, 'fwi_class': 'extreme', 'fetched_at': '2026-06-30T14:34:11.436244Z'}",57.212,extreme
166,166,2025,36,36123,Mézières-en-Brenne,7/11/2025 19:31,"  80,000.00 ",46.808,1.257,2025-07-11,"{'lat': 46.808, 'lon': 1.257, 'date': '2025-07-11', 'fwi': 41.679, 'fwi_class': 'very_high', 'fetched_at': '2026-06-30T14:34:11.594407Z'}",41.679,very_high
167,167,2025,1,1415,Talissieu,8/9/2025 16:48,"  80,000.00 ",45.8627,5.7199,2025-08-09,"{'lat': 45.8627, 'lon': 5.7199, 'date': '2025-08-09', 'fwi': 13.564, 'fwi_class': 'moderate', 'fetched_at': '2026-06-30T14:34:11.757134Z'}",13.564,moderate
168,168,2025,31,31337,Melles,8/13/2025 11:05,"  80,000.00 ",42.8643,0.8036,2025-08-13,"{'lat': 42.8643, 'lon': 0.8036, 'date': '2025-08-13', 'fwi': 0.228, 'fwi_class': 'very_low', 'fetched_at': '2026-06-30T14:34:11.903113Z'}",0.228,very_low
169,169,2025,40,40310,Soustons,8/13/2025 15:02,"  77,000.00 ",43.754,-1.3305,2025-08-13,"{'lat': 43.754, 'lon': -1.3305, 'date': '2025-08-13', 'fwi': 22.069, 'fwi_class': 'high', 'fetched_at': '2026-06-30T14:34:12.054084Z'}",22.069,high
170,170,2025,13,13071,Les Pennes-Mirabeau,7/5/2025 3:38,"  76,400.00 ",43.4005,5.3222,2025-07-05,"{'lat': 43.4005, 'lon': 5.3222, 'date': '2025-07-05', 'fwi': 74.253, 'fwi_class': 'extreme', 'fetched_at': '2026-06-30T14:34:12.207053Z'}",74.253,extreme
172,172,2025,40,40167,Luxey,8/13/2025 14:08,"  75,000.00 ",44.2382,-0.5061,2025-08-13,"{'lat': 44.2382, 'lon': -0.5061, 'date': '2025-08-13', 'fwi': 31.68, 'fwi_class': 'high', 'fetched_at': '2026-06-30T14:34:12.511292Z'}",31.68,high
173,173,2025,11,11098,Conilhac-Corbières,5/25/2025 13:36,"  74,200.00 ",43.1856,2.7115,2025-05-25,"{'lat': 43.1856, 'lon': 2.7115, 'date': '2025-05-25', 'fwi': 32.712, 'fwi_class': 'high', 'fetched_at': '2026-06-30T14:34:12.660670Z'}",32.712,high
174,174,2025,83,83061,Fréjus,7/7/2025 11:00,"  73,735.00 ",43.4553,6.7848,2025-07-07,"{'lat': 43.4553, 'lon': 6.7848, 'date': '2025-07-07', 'fwi': 111.287, 'fwi_class': 'extreme', 'fetched_at': '2026-06-30T14:34:12.817546Z'}",111.287,extreme
175,175,2025,2A,2A031,Bastelica,4/6/2025 22:08,"  73,000.00 ",41.9781,9.0553,2025-04-06,"{'lat': 41.9781, 'lon': 9.0553, 'date': '2025-04-06', 'fwi': 5.229, 'fwi_class': 'low', 'fetched_at': '2026-06-30T14:34:12.964603Z'}",5.229,low
177,177,2025,48,48068,Gabrias,7/9/2025 16:02,"  71,000.00 ",44.5522,3.3848,2025-07-09,"{'lat': 44.5522, 'lon': 3.3848, 'date': '2025-07-09', 'fwi': 20.392, 'fwi_class': 'moderate', 'fetched_at': '2026-06-30T14:34:13.252041Z'}",20.392,moderate
178,178,2025,16,16110,Courcôme,6/30/2025 15:15,"  70,100.00 ",45.9862,0.1432,2025-06-30,"{'lat': 45.9862, 'lon': 0.1432, 'date': '2025-06-30', 'fwi': 41.08, 'fwi_class': 'very_high', 'fetched_at': '2026-06-30T14:34:13.393684Z'}",41.08,very_high
179,179,2025,2B,2B223,Pietralba,1/15/2025 16:35,"  70,000.00 ",42.5427,9.1778,2025-01-15,"{'lat': 42.5427, 'lon': 9.1778, 'date': '2025-01-15', 'fwi': 3.997, 'fwi_class': 'very_low', 'fetched_at': '2026-06-30T14:34:13.574208Z'}",3.997,very_low
180,180,2025,37,37040,Brizay,7/12/2025 16:40,"  70,000.00 ",47.0942,0.3881,2025-07-12,"{'lat': 47.0942, 'lon': 0.3881, 'date': '2025-07-12', 'fwi': 42.891, 'fwi_class': 'very_high', 'fetched_at': '2026-06-30T14:34:13.720530Z'}",42.891,very_high
181,181,2025,29,29004,Bannalec,7/12/2025 19:28,"  70,000.00 ",47.9362,-3.6883,2025-07-12,"{'lat': 47.9362, 'lon': -3.6883, 'date': '2025-07-12', 'fwi': 43.432, 'fwi_class': 'very_high', 'fetched_at': '2026-06-30T14:34:13.875885Z'}",43.432,very_high
183,183,2025,7,7136,Laveyrune,8/14/2025 20:11,"  70,000.00 ",44.6174,3.9255,2025-08-14,"{'lat': 44.6174, 'lon': 3.9255, 'date': '2025-08-14', 'fwi': 32.579, 'fwi_class': 'high', 'fetched_at': '2026-06-30T14:34:14.175475Z'}",32.579,high
184,184,2025,11,11262,Narbonne,11/3/2025 12:24,"  70,000.00 ",43.1493,3.0337,2025-11-03,"{'lat': 43.1493, 'lon': 3.0337, 'date': '2025-11-03', 'fwi': 26.457, 'fwi_class': 'high', 'fetched_at': '2026-06-30T14:34:14.324300Z'}",26.457,high
185,185,2025,38,38446,Saint-Pierre-d'Entremont,11/13/2025 14:56,"  70,000.00 ",45.3835,5.8523,2025-11-13,"{'lat': 45.3835, 'lon': 5.8523, 'date': '2025-11-13', 'fwi': 4.467, 'fwi_class': 'very_low', 'fetched_at': '2026-06-30T14:34:14.490942Z'}",4.467,very_low
186,186,2025,84,84129,Sorgues,8/10/2025 17:46,"  69,900.00 ",44.016,4.8555,2025-08-10,"{'lat': 44.016, 'lon': 4.8555, 'date': '2025-08-10', 'fwi': 101.997, 'fwi_class': 'extreme', 'fetched_at': '2026-06-30T14:34:14.640737Z'}",101.997,extreme
187,187,2025,34,34051,Canet,6/28/2025 16:46,"  69,878.00 ",43.5992,3.4821,2025-06-28,"{'lat': 43.5992, 'lon': 3.4821, 'date': '2025-06-28', 'fwi': 47.06, 'fwi_class': 'very_high', 'fetched_at': '2026-06-30T14:34:14.781276Z'}",47.06,very_high
189,189,2025,11,11369,Sallèles-d'Aude,6/5/2025 16:53,"  69,440.00 ",43.2712,2.9342,2025-06-05,"{'lat': 43.2712, 'lon': 2.9342, 'date': '2025-06-05', 'fwi': 4.698, 'fwi_class': 'very_low', 'fetched_at': '2026-06-30T14:34:15.072261Z'}",4.698,very_low
190,190,2025,2B,2B046,Cagnano,10/24/2025 14:32,"  68,200.00 ",42.8725,9.4431,2025-10-24,"{'lat': 42.8725, 'lon': 9.4431, 'date': '2025-10-24', 'fwi': 40.277, 'fwi_class': 'very_high', 'fetched_at': '2026-06-30T14:34:15.213293Z'}",40.277,very_high
191,191,2025,2B,2B105,Erbajolo,10/12/2025 13:09,"  67,000.00 ",42.252,9.2642,2025-10-12,"{'lat': 42.252, 'lon': 9.2642, 'date': '2025-10-12', 'fwi': 32.366, 'fwi_class': 'high', 'fetched_at': '2026-06-30T14:34:15.356051Z'}",32.366,high
192,192,2025,21,21178,Valforêt,6/29/2025 14:28,"  66,600.00 ",47.2482,4.8666,2025-06-29,"{'lat': 47.2482, 'lon': 4.8666, 'date': '2025-06-29', 'fwi': 23.429, 'fwi_class': 'high', 'fetched_at': '2026-06-30T14:34:15.490471Z'}",23.429,high
193,193,2025,34,34052,Capestang,10/6/2025 0:47,"  64,921.00 ",43.3184,3.0501,2025-10-06,"{'lat': 43.3184, 'lon': 3.0501, 'date': '2025-10-06', 'fwi': 29.294, 'fwi_class': 'high', 'fetched_at': '2026-06-30T14:34:15.635020Z'}",29.294,high
194,194,2025,2A,2A271,Sarrola-Carcopino,8/18/2025 13:39,"  63,000.00 ",41.9981,8.8276,2025-08-18,"{'lat': 41.9981, 'lon': 8.8276, 'date': '2025-08-18', 'fwi': 14.713, 'fwi_class': 'moderate', 'fetched_at': '2026-06-30T14:34:15.792251Z'}",14.713,moderate
195,195,2025,18,18223,Saint-Martin-d'Auxigny,7/4/2025 2:11,"  62,500.00 ",47.2164,2.3843,2025-07-04,"{'lat': 47.2164, 'lon': 2.3843, 'date': '2025-07-04', 'fwi': 35.691, 'fwi_class': 'high', 'fetched_at': '2026-06-30T14:34:15.947997Z'}",35.691,high
196,196,2025,56,56241,Sauzon,7/2/2025 21:48,"  60,000.00 ",47.356,-3.2295,2025-07-02,"{'lat': 47.356, 'lon': -3.2295, 'date': '2025-07-02', 'fwi': 20.846, 'fwi_class': 'moderate', 'fetched_at': '2026-06-30T14:34:16.091536Z'}",20.846,moderate
197,197,2025,7,7094,Gilhac-et-Bruzac,3/8/2025 22:28,"  60,000.00 ",44.8624,4.7474,2025-03-08,"{'lat': 44.8624, 'lon': 4.7474, 'date': '2025-03-08', 'fwi': 7.523, 'fwi_class': 'low', 'fetched_at': '2026-06-30T14:34:16.241851Z'}",7.523,low
198,198,2025,48,48175,Saint-Pierre-de-Nogaret,4/5/2025 20:00,"  60,000.00 ",44.4896,3.1256,2025-04-05,"{'lat': 44.4896, 'lon': 3.1256, 'date': '2025-04-05', 'fwi': 4.331, 'fwi_class': 'very_low', 'fetched_at': '2026-06-30T14:34:16.403011Z'}",4.331,very_low
199,199,2025,41,41127,La Marolle-en-Sologne,6/25/2025 16:01,"  60,000.00 ",47.5808,1.7933,2025-06-25,"{'lat': 47.5808, 'lon': 1.7933, 'date': '2025-06-25', 'fwi': 43.448, 'fwi_class': 'very_high', 'fetched_at': '2026-06-30T14:34:16.549864Z'}",43.448,very_high
200,200,2025,56,56145,Néant-sur-Yvel,7/3/2025 19:03,"  60,000.00 ",48.0208,-2.331,2025-07-03,"{'lat': 48.0208, 'lon': -2.331, 'date': '2025-07-03', 'fwi': 13.486, 'fwi_class': 'moderate', 'fetched_at': '2026-06-30T14:34:16.702682Z'}",13.486,moderate
201,201,2025,24,24388,Saint-Chamassy,7/9/2025 12:11,"  60,000.00 ",44.8784,0.932,2025-07-09,"{'lat': 44.8784, 'lon': 0.932, 'date': '2025-07-09', 'fwi': 17.384, 'fwi_class': 'moderate', 'fetched_at': '2026-06-30T14:34:16.848627Z'}",17.384,moderate
202,202,2025,69,69277,Genas,7/9/2025 18:05,"  60,000.00 ",45.7286,5.0172,2025-07-09,"{'lat': 45.7286, 'lon': 5.0172, 'date': '2025-07-09', 'fwi': 28.749, 'fwi_class': 'high', 'fetched_at': '2026-06-30T14:34:16.994579Z'}",28.749,high
203,203,2025,36,36035,Chaillac,7/11/2025 15:33,"  60,000.00 ",46.427,1.2879,2025-07-11,"{'lat': 46.427, 'lon': 1.2879, 'date': '2025-07-11', 'fwi': 57.369, 'fwi_class': 'extreme', 'fetched_at': '2026-06-30T14:34:17.140992Z'}",57.369,extreme
204,204,2025,13,13039,Fos-sur-Mer,7/26/2025 14:49,"  60,000.00 ",43.4545,4.8979,2025-07-26,"{'lat': 43.4545, 'lon': 4.8979, 'date': '2025-07-26', 'fwi': 83.881, 'fwi_class': 'extreme', 'fetched_at': '2026-06-30T14:34:17.296574Z'}",83.881,extreme
205,205,2025,2B,2B185,Oletta,8/2/2025 16:15,"  60,000.00 ",42.6451,9.3453,2025-08-02,"{'lat': 42.6451, 'lon': 9.3453, 'date': '2025-08-02', 'fwi': 20.647, 'fwi_class': 'moderate', 'fetched_at': '2026-06-30T14:34:17.449071Z'}",20.647,moderate
206,206,2025,44,44041,La Chevrolière,8/23/2025 16:32,"  60,000.00 ",47.0908,-1.5965,2025-08-23,"{'lat': 47.0908, 'lon': -1.5965, 'date': '2025-08-23', 'fwi': 25.928, 'fwi_class': 'high', 'fetched_at': '2026-06-30T14:34:17.605048Z'}",25.928,high
207,207,2025,40,40167,Luxey,7/19/2025 8:24,"  56,000.00 ",44.2382,-0.5061,2025-07-19,"{'lat': 44.2382, 'lon': -0.5061, 'date': '2025-07-19', 'fwi': 6.616, 'fwi_class': 'low', 'fetched_at': '2026-06-30T14:34:17.758323Z'}",6.616,low
208,208,2025,33,33095,Captieux,8/10/2025 13:29,"  56,000.00 ",44.2621,-0.2981,2025-08-10,"{'lat': 44.2621, 'lon': -0.2981, 'date': '2025-08-10', 'fwi': 33.342, 'fwi_class': 'high', 'fetched_at': '2026-06-30T14:34:17.913782Z'}",33.342,high
209,209,2025,56,56102,Forges de Lanouée,7/15/2025 13:31,"  55,000.00 ",48.0144,-2.5781,2025-07-15,"{'lat': 48.0144, 'lon': -2.5781, 'date': '2025-07-15', 'fwi': 56.182, 'fwi_class': 'extreme', 'fetched_at': '2026-06-30T14:34:18.059079Z'}",56.182,extreme
210,210,2025,38,38432,Saint-Nicolas-de-Macherin,11/14/2025 19:26,"  52,000.00 ",45.4057,5.6152,2025-11-14,"{'lat': 45.4057, 'lon': 5.6152, 'date': '2025-11-14', 'fwi': 5.942, 'fwi_class': 'low', 'fetched_at': '2026-06-30T14:34:18.203878Z'}",5.942,low
211,211,2025,12,12244,Saint-Rome-de-Tarn,8/17/2025 17:39,"  51,900.00 ",44.0362,2.8923,2025-08-17,"{'lat': 44.0362, 'lon': 2.8923, 'date': '2025-08-17', 'fwi': 62.524, 'fwi_class': 'extreme', 'fetched_at': '2026-06-30T14:34:18.358625Z'}",62.524,extreme
212,212,2025,6,6022,Bouyon,11/5/2025 10:51,"  51,300.00 ",43.8272,7.125,2025-11-05,"{'lat': 43.8272, 'lon': 7.125, 'date': '2025-11-05', 'fwi': 2.965, 'fwi_class': 'very_low', 'fetched_at': '2026-06-30T14:34:18.510780Z'}",2.965,very_low
213,213,2025,83,83113,Saint-Julien,8/2/2025 14:32,"  50,975.00 ",43.7045,5.9143,2025-08-02,"{'lat': 43.7045, 'lon': 5.9143, 'date': '2025-08-02', 'fwi': 63.487, 'fwi_class': 'extreme', 'fetched_at': '2026-06-30T14:34:18.661429Z'}",63.487,extreme
214,214,2025,26,26107,Crépol,7/4/2025 19:16,"  50,800.00 ",45.1778,5.0675,2025-07-04,"{'lat': 45.1778, 'lon': 5.0675, 'date': '2025-07-04', 'fwi': 45.46, 'fwi_class': 'very_high', 'fetched_at': '2026-06-30T14:34:18.806902Z'}",45.46,very_high
215,215,2025,40,40163,Lüe,8/16/2025 18:12,"  50,300.00 ",44.2337,-0.9858,2025-08-16,"{'lat': 44.2337, 'lon': -0.9858, 'date': '2025-08-16', 'fwi': 34.198, 'fwi_class': 'high', 'fetched_at': '2026-06-30T14:34:18.976242Z'}",34.198,high
216,216,2025,56,56034,Carnac,6/23/2025 15:54,"  50,000.00 ",47.6034,-3.0664,2025-06-23,"{'lat': 47.6034, 'lon': -3.0664, 'date': '2025-06-23', 'fwi': 16.674, 'fwi_class': 'moderate', 'fetched_at': '2026-06-30T14:34:19.123419Z'}",16.674,moderate
217,217,2025,13,13102,Saint-Victoret,6/24/2025 15:13,"  50,000.00 ",43.4121,5.2508,2025-06-24,"{'lat': 43.4121, 'lon': 5.2508, 'date': '2025-06-24', 'fwi': 69.548, 'fwi_class': 'extreme', 'fetched_at': '2026-06-30T14:34:19.269915Z'}",69.548,extreme
218,218,2025,56,56034,Carnac,7/3/2025 16:21,"  50,000.00 ",47.6034,-3.0664,2025-07-03,"{'lat': 47.6034, 'lon': -3.0664, 'date': '2025-07-03', 'fwi': 18.829, 'fwi_class': 'moderate', 'fetched_at': '2026-06-30T14:34:19.417368Z'}",18.829,moderate
219,219,2025,56,56035,Caro,7/4/2025 16:53,"  50,000.00 ",47.8652,-2.3349,2025-07-04,"{'lat': 47.8652, 'lon': -2.3349, 'date': '2025-07-04', 'fwi': 25.161, 'fwi_class': 'high', 'fetched_at': '2026-06-30T14:34:19.563488Z'}",25.161,high
220,220,2025,82,82134,Nègrepelisse,8/9/2025 14:54,"  50,000.00 ",44.0629,1.5373,2025-08-09,"{'lat': 44.0629, 'lon': 1.5373, 'date': '2025-08-09', 'fwi': 27.24, 'fwi_class': 'high', 'fetched_at': '2026-06-30T14:34:19.715937Z'}",27.24,high
221,221,2025,7,7158,Mézilhac,8/12/2025 10:22,"  50,000.00 ",44.8078,4.342,2025-08-12,"{'lat': 44.8078, 'lon': 4.342, 'date': '2025-08-12', 'fwi': 46.207, 'fwi_class': 'very_high', 'fetched_at': '2026-06-30T14:34:19.875398Z'}",46.207,very_high
222,222,2025,49,49221,Mouliherne,8/25/2025 15:28,"  50,000.00 ",47.4503,0.0176,2025-08-25,"{'lat': 47.4503, 'lon': 0.0176, 'date': '2025-08-25', 'fwi': 30.968, 'fwi_class': 'high', 'fetched_at': '2026-06-30T14:34:20.018244Z'}",30.968,high
223,223,2025,6,6098,Puget-Rostang,9/20/2025 10:48,"  49,400.00 ",44.0056,6.9333,2025-09-20,"{'lat': 44.0056, 'lon': 6.9333, 'date': '2025-09-20', 'fwi': 15.62, 'fwi_class': 'moderate', 'fetched_at': '2026-06-30T14:34:20.187552Z'}",15.62,moderate
224,224,2025,6,6037,Caussols,8/29/2025 11:03,"  48,446.00 ",43.7387,6.9071,2025-08-29,"{'lat': 43.7387, 'lon': 6.9071, 'date': '2025-08-29', 'fwi': 5.125, 'fwi_class': 'very_low', 'fetched_at': '2026-06-30T14:34:20.331266Z'}",5.125,very_low
225,225,2025,33,33202,Hostens,8/13/2025 4:57,"  48,100.00 ",44.4834,-0.6616,2025-08-13,"{'lat': 44.4834, 'lon': -0.6616, 'date': '2025-08-13', 'fwi': 31.531, 'fwi_class': 'high', 'fetched_at': '2026-06-30T14:34:20.484016Z'}",31.531,high
226,226,2025,11,11262,Narbonne,10/28/2025 13:06,"  48,000.00 ",43.1493,3.0337,2025-10-28,"{'lat': 43.1493, 'lon': 3.0337, 'date': '2025-10-28', 'fwi': 18.071, 'fwi_class': 'moderate', 'fetched_at': '2026-06-30T14:34:20.631928Z'}",18.071,moderate
227,227,2025,34,34186,Octon,10/18/2025 14:32,"  47,539.00 ",43.6588,3.2936,2025-10-18,"{'lat': 43.6588, 'lon': 3.2936, 'date': '2025-10-18', 'fwi': 22.113, 'fwi_class': 'high', 'fetched_at': '2026-06-30T14:34:20.783305Z'}",22.113,high
228,228,2025,66,66155,Py,7/2/2025 14:27,"  45,000.00 ",42.4683,2.3635,2025-07-02,"{'lat': 42.4683, 'lon': 2.3635, 'date': '2025-07-02', 'fwi': 5.737, 'fwi_class': 'low', 'fetched_at': '2026-06-30T14:34:20.942518Z'}",5.737,low
229,229,2025,40,40319,Trensacq,8/17/2025 18:53,"  45,000.00 ",44.232,-0.7015,2025-08-17,"{'lat': 44.232, 'lon': -0.7015, 'date': '2025-08-17', 'fwi': 26.155, 'fwi_class': 'high', 'fetched_at': '2026-06-30T14:34:21.106478Z'}",26.155,high
231,231,2025,43,43246,Tiranges,7/31/2025 11:55,"  43,000.00 ",45.2875,4.0154,2025-07-31,"{'lat': 45.2875, 'lon': 4.0154, 'date': '2025-07-31', 'fwi': 17.646, 'fwi_class': 'moderate', 'fetched_at': '2026-06-30T14:34:21.407913Z'}",17.646,moderate
232,232,2025,2A,2A024,Aullène,8/6/2025 12:07,"  43,000.00 ",41.811,9.0929,2025-08-06,"{'lat': 41.811, 'lon': 9.0929, 'date': '2025-08-06', 'fwi': 34.374, 'fwi_class': 'high', 'fetched_at': '2026-06-30T14:34:21.564195Z'}",34.374,high
234,234,2025,13,13051,Lançon-Provence,8/5/2025 22:03,"  42,000.00 ",43.5728,5.1725,2025-08-05,"{'lat': 43.5728, 'lon': 5.1725, 'date': '2025-08-05', 'fwi': 49.43, 'fwi_class': 'very_high', 'fetched_at': '2026-06-30T14:34:21.853757Z'}",49.43,very_high
235,235,2025,40,40149,Lencouacq,8/6/2025 16:49,"  41,000.00 ",44.1482,-0.3856,2025-08-06,"{'lat': 44.1482, 'lon': -0.3856, 'date': '2025-08-06', 'fwi': 38.234, 'fwi_class': 'very_high', 'fetched_at': '2026-06-30T14:34:21.994674Z'}",38.234,very_high
236,236,2025,41,41010,Azé,7/12/2025 16:05,"  40,100.00 ",47.8587,0.9986,2025-07-12,"{'lat': 47.8587, 'lon': 0.9986, 'date': '2025-07-12', 'fwi': 32.227, 'fwi_class': 'high', 'fetched_at': '2026-06-30T14:34:22.129054Z'}",32.227,high
238,238,2025,83,83002,Aiguines,4/3/2025 10:48,"  40,000.00 ",43.7365,6.3197,2025-04-03,"{'lat': 43.7365, 'lon': 6.3197, 'date': '2025-04-03', 'fwi': 0.649, 'fwi_class': 'very_low', 'fetched_at': '2026-06-30T14:34:22.409611Z'}",0.649,very_low
239,239,2025,24,24364,Coly-Saint-Amand,4/11/2025 11:27,"  40,000.00 ",45.0634,1.2456,2025-04-11,"{'lat': 45.0634, 'lon': 1.2456, 'date': '2025-04-11', 'fwi': 21.285, 'fwi_class': 'moderate', 'fetched_at': '2026-06-30T14:34:22.560083Z'}",21.285,moderate
240,240,2025,19,19031,Brive-la-Gaillarde,6/21/2025 14:29,"  40,000.00 ",45.145,1.5144,2025-06-21,"{'lat': 45.145, 'lon': 1.5144, 'date': '2025-06-21', 'fwi': 27.617, 'fwi_class': 'high', 'fetched_at': '2026-06-30T14:34:22.710324Z'}",27.617,high
241,241,2025,35,35237,Renac,7/1/2025 16:52,"  40,000.00 ",47.722,-1.9769,2025-07-01,"{'lat': 47.722, 'lon': -1.9769, 'date': '2025-07-01', 'fwi': 32.323, 'fwi_class': 'high', 'fetched_at': '2026-06-30T14:34:22.860514Z'}",32.323,high
242,242,2025,2B,2B283,Solaro,7/8/2025 14:20,"  40,000.00 ",41.8789,9.3181,2025-07-08,"{'lat': 41.8789, 'lon': 9.3181, 'date': '2025-07-08', 'fwi': 33.947, 'fwi_class': 'high', 'fetched_at': '2026-06-30T14:34:23.009107Z'}",33.947,high
243,243,2025,24,24448,Saint-Martial-d'Albarède,7/12/2025 2:59,"  40,000.00 ",45.3203,1.0387,2025-07-12,"{'lat': 45.3203, 'lon': 1.0387, 'date': '2025-07-12', 'fwi': 36.302, 'fwi_class': 'high', 'fetched_at': '2026-06-30T14:34:23.155666Z'}",36.302,high
244,244,2025,2B,2B009,Aléria,7/12/2025 16:08,"  40,000.00 ",42.0993,9.4972,2025-07-12,"{'lat': 42.0993, 'lon': 9.4972, 'date': '2025-07-12', 'fwi': 27.006, 'fwi_class': 'high', 'fetched_at': '2026-06-30T14:34:23.314102Z'}",27.006,high
245,245,2025,33,33255,Lucmau,7/13/2025 16:28,"  40,000.00 ",44.2955,-0.3364,2025-07-13,"{'lat': 44.2955, 'lon': -0.3364, 'date': '2025-07-13', 'fwi': 34.716, 'fwi_class': 'high', 'fetched_at': '2026-06-30T14:34:23.485857Z'}",34.716,high
246,246,2025,33,33442,Saint-Martin-de-Laye,8/1/2025 17:38,"  40,000.00 ",45.0319,-0.2279,2025-08-01,"{'lat': 45.0319, 'lon': -0.2279, 'date': '2025-08-01', 'fwi': 32.846, 'fwi_class': 'high', 'fetched_at': '2026-06-30T14:34:23.631701Z'}",32.846,high
247,247,2025,13,13063,Miramas,8/8/2025 14:00,"  40,000.00 ",43.5841,5.0148,2025-08-08,"{'lat': 43.5841, 'lon': 5.0148, 'date': '2025-08-08', 'fwi': 29.981, 'fwi_class': 'high', 'fetched_at': '2026-06-30T14:34:23.785415Z'}",29.981,high
248,248,2025,89,89013,Appoigny,8/9/2025 18:01,"  40,000.00 ",47.8669,3.5206,2025-08-09,"{'lat': 47.8669, 'lon': 3.5206, 'date': '2025-08-09', 'fwi': 28.682, 'fwi_class': 'high', 'fetched_at': '2026-06-30T14:34:23.933433Z'}",28.682,high
249,249,2025,15,15142,Neuvéglise-sur-Truyère,8/12/2025 13:39,"  40,000.00 ",44.936,2.9767,2025-08-12,"{'lat': 44.936, 'lon': 2.9767, 'date': '2025-08-12', 'fwi': 45.084, 'fwi_class': 'very_high', 'fetched_at': '2026-06-30T14:34:24.070892Z'}",45.084,very_high
250,250,2025,2A,2A031,Bastelica,7/30/2025 16:08,"  39,000.00 ",41.9781,9.0553,2025-07-30,"{'lat': 41.9781, 'lon': 9.0553, 'date': '2025-07-30', 'fwi': 18.357, 'fwi_class': 'moderate', 'fetched_at': '2026-06-30T14:34:24.221521Z'}",18.357,moderate
251,251,2025,34,34163,Montarnaud,8/10/2025 15:15,"  36,307.00 ",43.648,3.7053,2025-08-10,"{'lat': 43.648, 'lon': 3.7053, 'date': '2025-08-10', 'fwi': 58.472, 'fwi_class': 'extreme', 'fetched_at': '2026-06-30T14:34:24.371331Z'}",58.472,extreme
253,253,2025,83,83023,Brignoles,7/6/2025 14:19,"  35,322.00 ",43.3878,6.0759,2025-07-06,"{'lat': 43.3878, 'lon': 6.0759, 'date': '2025-07-06', 'fwi': 67.264, 'fwi_class': 'extreme', 'fetched_at': '2026-06-30T14:34:24.673790Z'}",67.264,extreme
254,254,2025,72,72195,Mézeray,4/11/2025 15:07,"  35,000.00 ",47.8317,-0.0213,2025-04-11,"{'lat': 47.8317, 'lon': -0.0213, 'date': '2025-04-11', 'fwi': 22.357, 'fwi_class': 'high', 'fetched_at': '2026-06-30T14:34:24.825819Z'}",22.357,high
255,255,2025,26,26344,Soyans,6/14/2025 15:21,"  35,000.00 ",44.6405,5.0265,2025-06-14,"{'lat': 44.6405, 'lon': 5.0265, 'date': '2025-06-14', 'fwi': 21.343, 'fwi_class': 'high', 'fetched_at': '2026-06-30T14:34:24.974941Z'}",21.343,high
256,256,2025,2B,2B138,Lavatoggio,6/19/2025 10:43,"  35,000.00 ",42.5754,8.8624,2025-06-19,"{'lat': 42.5754, 'lon': 8.8624, 'date': '2025-06-19', 'fwi': 31.078, 'fwi_class': 'high', 'fetched_at': '2026-06-30T14:34:25.123723Z'}",31.078,high
257,257,2025,87,87090,Mailhac-sur-Benaize,8/16/2025 17:38,"  35,000.00 ",46.3109,1.3164,2025-08-16,"{'lat': 46.3109, 'lon': 1.3164, 'date': '2025-08-16', 'fwi': 55.676, 'fwi_class': 'extreme', 'fetched_at': '2026-06-30T14:34:25.259182Z'}",55.676,extreme
258,258,2025,66,66127,Opoul-Périllos,10/28/2025 2:41,"  34,650.00 ",42.8817,2.8601,2025-10-28,"{'lat': 42.8817, 'lon': 2.8601, 'date': '2025-10-28', 'fwi': 21.649, 'fwi_class': 'high', 'fetched_at': '2026-06-30T14:34:25.399384Z'}",21.649,high
259,259,2025,17,17243,Montlieu-la-Garde,7/6/2025 0:03,"  33,843.00 ",45.2286,-0.2748,2025-07-06,"{'lat': 45.2286, 'lon': -0.2748, 'date': '2025-07-06', 'fwi': 45.485, 'fwi_class': 'very_high', 'fetched_at': '2026-06-30T14:34:25.541068Z'}",45.485,very_high
260,260,2025,46,46252,Les Pechs du Vers,7/1/2025 17:09,"  33,700.00 ",44.5874,1.5661,2025-07-01,"{'lat': 44.5874, 'lon': 1.5661, 'date': '2025-07-01', 'fwi': 40.5, 'fwi_class': 'very_high', 'fetched_at': '2026-06-30T14:34:25.683563Z'}",40.5,very_high
261,261,2025,34,34144,Lunas-les-Châteaux,3/5/2025 19:18,"  33,020.00 ",43.6977,3.1951,2025-03-05,"{'lat': 43.6977, 'lon': 3.1951, 'date': '2025-03-05', 'fwi': 3.212, 'fwi_class': 'very_low', 'fetched_at': '2026-06-30T14:34:25.837088Z'}",3.212,very_low
262,262,2025,4,4075,Entrepierres,7/13/2025 13:29,"  32,400.00 ",44.195,6.0254,2025-07-13,"{'lat': 44.195, 'lon': 6.0254, 'date': '2025-07-13', 'fwi': 44.969, 'fwi_class': 'very_high', 'fetched_at': '2026-06-30T14:34:25.970802Z'}",44.969,very_high
263,263,2025,83,83096,Pourcieux,8/26/2025 15:26,"  32,389.00 ",43.4626,5.7894,2025-08-26,"{'lat': 43.4626, 'lon': 5.7894, 'date': '2025-08-26', 'fwi': 36.83, 'fwi_class': 'high', 'fetched_at': '2026-06-30T14:34:26.118397Z'}",36.83,high
264,264,2025,17,17074,Bussac-Forêt,8/7/2025 17:17,"  32,034.00 ",45.1928,-0.3774,2025-08-07,"{'lat': 45.1928, 'lon': -0.3774, 'date': '2025-08-07', 'fwi': 47.665, 'fwi_class': 'very_high', 'fetched_at': '2026-06-30T14:34:26.270662Z'}",47.665,very_high
265,265,2025,46,46197,Le Montat,7/17/2025 17:46,"  32,000.00 ",44.3881,1.4567,2025-07-17,"{'lat': 44.3881, 'lon': 1.4567, 'date': '2025-07-17', 'fwi': 25.933, 'fwi_class': 'high', 'fetched_at': '2026-06-30T14:34:26.421828Z'}",25.933,high
266,266,2025,22,22034,Cavan,8/9/2025 16:15,"  32,000.00 ",48.6832,-3.3563,2025-08-09,"{'lat': 48.6832, 'lon': -3.3563, 'date': '2025-08-09', 'fwi': 22.48, 'fwi_class': 'high', 'fetched_at': '2026-06-30T14:34:26.570125Z'}",22.48,high
267,267,2025,34,34076,Ceyras,10/17/2025 11:14,"  31,746.00 ",43.6512,3.4628,2025-10-17,"{'lat': 43.6512, 'lon': 3.4628, 'date': '2025-10-17', 'fwi': 20.929, 'fwi_class': 'moderate', 'fetched_at': '2026-06-30T14:34:26.716536Z'}",20.929,moderate
268,268,2025,30,30267,Saint-Jean-de-Serres,8/27/2025 14:40,"  31,482.00 ",43.9897,4.0747,2025-08-27,"{'lat': 43.9897, 'lon': 4.0747, 'date': '2025-08-27', 'fwi': 3.537, 'fwi_class': 'very_low', 'fetched_at': '2026-06-30T14:34:26.868541Z'}",3.537,very_low
269,269,2025,34,34157,Mèze,6/26/2025 13:53,"  31,052.00 ",43.4323,3.5843,2025-06-26,"{'lat': 43.4323, 'lon': 3.5843, 'date': '2025-06-26', 'fwi': 47.484, 'fwi_class': 'very_high', 'fetched_at': '2026-06-30T14:34:27.010335Z'}",47.484,very_high
270,270,2025,66,66190,Salses-le-Château,6/11/2025 15:26,"  31,000.00 ",42.8359,2.9134,2025-06-11,"{'lat': 42.8359, 'lon': 2.9134, 'date': '2025-06-11', 'fwi': 29.122, 'fwi_class': 'high', 'fetched_at': '2026-06-30T14:34:27.154381Z'}",29.122,high
271,271,2025,34,34341,Villeveyrac,7/28/2025 21:24,"  30,762.00 ",43.4956,3.5931,2025-07-28,"{'lat': 43.4956, 'lon': 3.5931, 'date': '2025-07-28', 'fwi': 67.726, 'fwi_class': 'extreme', 'fetched_at': '2026-06-30T14:34:27.294103Z'}",67.726,extreme
272,272,2025,11,11353,Saint-Marcel-sur-Aude,6/5/2025 16:40,"  30,700.00 ",43.252,2.929,2025-06-05,"{'lat': 43.252, 'lon': 2.929, 'date': '2025-06-05', 'fwi': 4.698, 'fwi_class': 'very_low', 'fetched_at': '2026-06-30T14:34:27.437955Z'}",4.698,very_low
273,273,2025,24,24442,Saint-Léon-sur-l'Isle,6/29/2025 10:31,"  30,500.00 ",45.1175,0.498,2025-06-29,"{'lat': 45.1175, 'lon': 0.498, 'date': '2025-06-29', 'fwi': 30.445, 'fwi_class': 'high', 'fetched_at': '2026-06-30T14:34:27.580673Z'}",30.445,high
274,274,2025,24,24488,Saint-Pompon,8/6/2025 18:25,"  30,500.00 ",44.7126,1.1388,2025-08-06,"{'lat': 44.7126, 'lon': 1.1388, 'date': '2025-08-06', 'fwi': 29.745, 'fwi_class': 'high', 'fetched_at': '2026-06-30T14:34:27.724222Z'}",29.745,high
275,275,2025,34,34255,Saint-Gély-du-Fesc,7/8/2025 13:40,"  30,270.00 ",43.6897,3.81,2025-07-08,"{'lat': 43.6897, 'lon': 3.81, 'date': '2025-07-08', 'fwi': 57.133, 'fwi_class': 'extreme', 'fetched_at': '2026-06-30T14:34:27.866280Z'}",57.133,extreme
276,276,2025,16,16085,Chasseneuil-sur-Bonnieure,7/9/2025 14:21,"  30,150.00 ",45.8242,0.4453,2025-07-09,"{'lat': 45.8242, 'lon': 0.4453, 'date': '2025-07-09', 'fwi': 37.429, 'fwi_class': 'high', 'fetched_at': '2026-06-30T14:34:28.011009Z'}",37.429,high
277,277,2025,73,73249,Saint-Jeoire-Prieuré,3/5/2025 15:19,"  30,000.00 ",45.5345,5.9931,2025-03-05,"{'lat': 45.5345, 'lon': 5.9931, 'date': '2025-03-05', 'fwi': 1.175, 'fwi_class': 'very_low', 'fetched_at': '2026-06-30T14:34:28.153110Z'}",1.175,very_low
278,278,2025,9,9100,Couflens,3/7/2025 10:49,"  30,000.00 ",42.7698,1.1796,2025-03-07,"{'lat': 42.7698, 'lon': 1.1796, 'date': '2025-03-07', 'fwi': 0.057, 'fwi_class': 'very_low', 'fetched_at': '2026-06-30T14:34:28.303398Z'}",0.057,very_low
279,279,2025,2A,2A209,Peri,4/3/2025 16:22,"  30,000.00 ",42.0015,8.9099,2025-04-03,"{'lat': 42.0015, 'lon': 8.9099, 'date': '2025-04-03', 'fwi': 0.869, 'fwi_class': 'very_low', 'fetched_at': '2026-06-30T14:34:28.443296Z'}",0.869,very_low
280,280,2025,14,14371,Livarot-Pays-d'Auge,4/30/2025 16:22,"  30,000.00 ",49.0014,0.2231,2025-04-30,"{'lat': 49.0014, 'lon': 0.2231, 'date': '2025-04-30', 'fwi': 13.312, 'fwi_class': 'moderate', 'fetched_at': '2026-06-30T14:34:28.596802Z'}",13.312,moderate
281,281,2025,77,77186,Fontainebleau,5/16/2025 14:11,"  30,000.00 ",48.4236,2.6817,2025-05-16,"{'lat': 48.4236, 'lon': 2.6817, 'date': '2025-05-16', 'fwi': 23.613, 'fwi_class': 'high', 'fetched_at': '2026-06-30T14:34:28.742251Z'}",23.613,high
282,282,2025,23,23029,Le Bourg-d'Hem,6/20/2025 17:23,"  30,000.00 ",46.2998,1.8379,2025-06-20,"{'lat': 46.2998, 'lon': 1.8379, 'date': '2025-06-20', 'fwi': 25.582, 'fwi_class': 'high', 'fetched_at': '2026-06-30T14:34:28.891760Z'}",25.582,high
283,283,2025,41,41059,Le Controis-en-Sologne,6/23/2025 17:04,"  30,000.00 ",47.4327,1.3851,2025-06-23,"{'lat': 47.4327, 'lon': 1.3851, 'date': '2025-06-23', 'fwi': 37.236, 'fwi_class': 'high', 'fetched_at': '2026-06-30T14:34:29.038748Z'}",37.236,high
284,284,2025,2B,2B185,Oletta,6/27/2025 14:00,"  30,000.00 ",42.6451,9.3453,2025-06-27,"{'lat': 42.6451, 'lon': 9.3453, 'date': '2025-06-27', 'fwi': 23.582, 'fwi_class': 'high', 'fetched_at': '2026-06-30T14:34:29.182383Z'}",23.582,high
285,285,2025,67,67122,Wangenbourg-Engenthal,7/5/2025 10:02,"  30,000.00 ",48.6255,7.303,2025-07-05,"{'lat': 48.6255, 'lon': 7.303, 'date': '2025-07-05', 'fwi': 24.708, 'fwi_class': 'high', 'fetched_at': '2026-06-30T14:34:29.330031Z'}",24.708,high
286,286,2025,58,58145,Lormes,7/5/2025 17:09,"  30,000.00 ",47.2941,3.827,2025-07-05,"{'lat': 47.2941, 'lon': 3.827, 'date': '2025-07-05', 'fwi': 31.386, 'fwi_class': 'high', 'fetched_at': '2026-06-30T14:34:29.474032Z'}",31.386,high
287,287,2025,13,13047,Istres,7/8/2025 23:44,"  30,000.00 ",43.5455,4.9477,2025-07-08,"{'lat': 43.5455, 'lon': 4.9477, 'date': '2025-07-08', 'fwi': 85.888, 'fwi_class': 'extreme', 'fetched_at': '2026-06-30T14:34:29.631733Z'}",85.888,extreme
288,288,2025,24,24064,Brantôme en Périgord,7/12/2025 6:16,"  30,000.00 ",45.3756,0.6596,2025-07-12,"{'lat': 45.3756, 'lon': 0.6596, 'date': '2025-07-12', 'fwi': 36.333, 'fwi_class': 'high', 'fetched_at': '2026-06-30T14:34:29.775433Z'}",36.333,high
289,289,2025,24,24205,Grignols,7/12/2025 17:47,"  30,000.00 ",45.0827,0.5359,2025-07-12,"{'lat': 45.0827, 'lon': 0.5359, 'date': '2025-07-12', 'fwi': 41.249, 'fwi_class': 'very_high', 'fetched_at': '2026-06-30T14:34:29.938952Z'}",41.249,very_high
290,290,2025,24,24309,Neuvic,7/18/2025 15:28,"  30,000.00 ",45.0889,0.4728,2025-07-18,"{'lat': 45.0889, 'lon': 0.4728, 'date': '2025-07-18', 'fwi': 30.804, 'fwi_class': 'high', 'fetched_at': '2026-06-30T14:34:30.100098Z'}",30.804,high
291,291,2025,24,24426,Saint-Jean-d'Estissac,7/27/2025 16:13,"  30,000.00 ",45.0374,0.5037,2025-07-27,"{'lat': 45.0374, 'lon': 0.5037, 'date': '2025-07-27', 'fwi': 6.514, 'fwi_class': 'low', 'fetched_at': '2026-06-30T14:34:30.244749Z'}",6.514,low
292,292,2025,33,33011,Arès,7/28/2025 6:59,"  30,000.00 ",44.7997,-1.0837,2025-07-28,"{'lat': 44.7997, 'lon': -1.0837, 'date': '2025-07-28', 'fwi': 19.952, 'fwi_class': 'moderate', 'fetched_at': '2026-06-30T14:34:30.393141Z'}",19.952,moderate
293,293,2025,58,58066,Châtin,8/13/2025 19:29,"  30,000.00 ",47.1048,3.8858,2025-08-13,"{'lat': 47.1048, 'lon': 3.8858, 'date': '2025-08-13', 'fwi': 46.503, 'fwi_class': 'very_high', 'fetched_at': '2026-06-30T14:34:30.553292Z'}",46.503,very_high
294,294,2025,33,33501,Saucats,8/15/2025 2:28,"  30,000.00 ",44.6476,-0.6377,2025-08-15,"{'lat': 44.6476, 'lon': -0.6377, 'date': '2025-08-15', 'fwi': 60.812, 'fwi_class': 'extreme', 'fetched_at': '2026-06-30T14:34:30.696137Z'}",60.812,extreme
295,295,2025,46,46083,Cressensac-Sarrazac,8/16/2025 15:48,"  30,000.00 ",45.0175,1.5499,2025-08-16,"{'lat': 45.0175, 'lon': 1.5499, 'date': '2025-08-16', 'fwi': 48.525, 'fwi_class': 'very_high', 'fetched_at': '2026-06-30T14:34:30.844018Z'}",48.525,very_high
296,296,2025,2B,2B201,Pancheraccia,8/17/2025 12:28,"  30,000.00 ",42.1891,9.4093,2025-08-17,"{'lat': 42.1891, 'lon': 9.4093, 'date': '2025-08-17', 'fwi': 46.236, 'fwi_class': 'very_high', 'fetched_at': '2026-06-30T14:34:30.989318Z'}",46.236,very_high
297,297,2025,2B,2B009,Aléria,8/19/2025 13:54,"  30,000.00 ",42.0993,9.4972,2025-08-19,"{'lat': 42.0993, 'lon': 9.4972, 'date': '2025-08-19', 'fwi': 26.358, 'fwi_class': 'high', 'fetched_at': '2026-06-30T14:34:31.138024Z'}",26.358,high
298,298,2025,7,7163,Montselgues,8/20/2025 14:20,"  30,000.00 ",44.5234,4.0037,2025-08-20,"{'lat': 44.5234, 'lon': 4.0037, 'date': '2025-08-20', 'fwi': 0.041, 'fwi_class': 'very_low', 'fetched_at': '2026-06-30T14:34:31.276965Z'}",0.041,very_low
299,299,2025,33,33095,Captieux,8/20/2025 18:11,"  30,000.00 ",44.2621,-0.2981,2025-08-20,"{'lat': 44.2621, 'lon': -0.2981, 'date': '2025-08-20', 'fwi': 0.715, 'fwi_class': 'very_low', 'fetched_at': '2026-06-30T14:34:31.419611Z'}",0.715,very_low
300,300,2025,7,7093,Genestelle,8/22/2025 0:30,"  30,000.00 ",44.7401,4.3915,2025-08-22,"{'lat': 44.7401, 'lon': 4.3915, 'date': '2025-08-22', 'fwi': 5.268, 'fwi_class': 'low', 'fetched_at': '2026-06-30T14:34:31.577016Z'}",5.268,low
301,301,2025,29,29008,Beuzec-Cap-Sizun,8/24/2025 13:48,"  30,000.00 ",48.0729,-4.5116,2025-08-24,"{'lat': 48.0729, 'lon': -4.5116, 'date': '2025-08-24', 'fwi': 19.17, 'fwi_class': 'moderate', 'fetched_at': '2026-06-30T14:34:31.727839Z'}",19.17,moderate
302,302,2025,2B,2B185,Oletta,8/24/2025 14:02,"  30,000.00 ",42.6451,9.3453,2025-08-24,"{'lat': 42.6451, 'lon': 9.3453, 'date': '2025-08-24', 'fwi': 4.45, 'fwi_class': 'very_low', 'fetched_at': '2026-06-30T14:34:31.894211Z'}",4.45,very_low
303,303,2025,2A,2A090,Coggia,8/28/2025 1:22,"  30,000.00 ",42.1096,8.7394,2025-08-28,"{'lat': 42.1096, 'lon': 8.7394, 'date': '2025-08-28', 'fwi': 26.324, 'fwi_class': 'high', 'fetched_at': '2026-06-30T14:34:32.051338Z'}",26.324,high
304,304,2025,2B,2B046,Cagnano,9/5/2025 14:35,"  30,000.00 ",42.8725,9.4431,2025-09-05,"{'lat': 42.8725, 'lon': 9.4431, 'date': '2025-09-05', 'fwi': 22.07, 'fwi_class': 'high', 'fetched_at': '2026-06-30T14:34:32.203982Z'}",22.07,high
305,305,2025,2B,2B292,Sant'Andréa-di-Bozio,9/6/2025 13:43,"  30,000.00 ",42.2767,9.2792,2025-09-06,"{'lat': 42.2767, 'lon': 9.2792, 'date': '2025-09-06', 'fwi': 31.004, 'fwi_class': 'high', 'fetched_at': '2026-06-30T14:34:32.342813Z'}",31.004,high
306,306,2025,83,83107,Roquebrune-sur-Argens,9/7/2025 11:29,"  30,000.00 ",43.4282,6.6525,2025-09-07,"{'lat': 43.4282, 'lon': 6.6525, 'date': '2025-09-07', 'fwi': 31.996, 'fwi_class': 'high', 'fetched_at': '2026-06-30T14:34:32.493755Z'}",31.996,high
307,307,2025,2B,2B355,Volpajola,10/23/2025 15:46,"  30,000.00 ",42.5237,9.3699,2025-10-23,"{'lat': 42.5237, 'lon': 9.3699, 'date': '2025-10-23', 'fwi': 13.746, 'fwi_class': 'moderate', 'fetched_at': '2026-06-30T14:34:32.636656Z'}",13.746,moderate
308,308,2025,48,48068,Gabrias,7/11/2025 16:38,"  29,580.00 ",44.5522,3.3848,2025-07-11,"{'lat': 44.5522, 'lon': 3.3848, 'date': '2025-07-11', 'fwi': 39.483, 'fwi_class': 'very_high', 'fetched_at': '2026-06-30T14:34:32.774674Z'}",39.483,very_high
310,310,2025,34,34328,Vendémian,11/18/2025 15:24,"  28,086.00 ",43.5808,3.5611,2025-11-18,"{'lat': 43.5808, 'lon': 3.5611, 'date': '2025-11-18', 'fwi': 8.435, 'fwi_class': 'low', 'fetched_at': '2026-06-30T14:34:33.072056Z'}",8.435,low
311,311,2025,33,33056,Blanquefort,8/26/2025 15:34,"  28,000.00 ",44.9216,-0.61,2025-08-26,"{'lat': 44.9216, 'lon': -0.61, 'date': '2025-08-26', 'fwi': 38.835, 'fwi_class': 'very_high', 'fetched_at': '2026-06-30T14:34:33.211730Z'}",38.835,very_high
312,312,2025,2B,2B039,Bisinchi,10/24/2025 11:34,"  27,000.00 ",42.4816,9.3137,2025-10-24,"{'lat': 42.4816, 'lon': 9.3137, 'date': '2025-10-24', 'fwi': 7.114, 'fwi_class': 'low', 'fetched_at': '2026-06-30T14:34:33.347255Z'}",7.114,low
313,313,2025,17,17113,La Clotte,7/27/2025 15:34,"  25,200.00 ",45.1175,-0.1404,2025-07-27,"{'lat': 45.1175, 'lon': -0.1404, 'date': '2025-07-27', 'fwi': 26.462, 'fwi_class': 'high', 'fetched_at': '2026-06-30T14:34:33.500892Z'}",26.462,high
314,314,2025,11,11241,Montbrun-des-Corbières,6/19/2025 16:45,"  25,100.00 ",43.2011,2.6843,2025-06-19,"{'lat': 43.2011, 'lon': 2.6843, 'date': '2025-06-19', 'fwi': 51.709, 'fwi_class': 'extreme', 'fetched_at': '2026-06-30T14:34:33.643309Z'}",51.709,extreme
315,315,2025,3,3050,La Chabanne,7/16/2025 17:51,"  25,080.00 ",46.0268,3.7526,2025-07-16,"{'lat': 46.0268, 'lon': 3.7526, 'date': '2025-07-16', 'fwi': 8.012, 'fwi_class': 'low', 'fetched_at': '2026-06-30T14:34:33.787926Z'}",8.012,low
316,316,2025,85,85291,Thorigny,6/30/2025 18:05,"  25,000.00 ",46.6153,-1.2441,2025-06-30,"{'lat': 46.6153, 'lon': -1.2441, 'date': '2025-06-30', 'fwi': 38.25, 'fwi_class': 'very_high', 'fetched_at': '2026-06-30T14:34:33.928646Z'}",38.25,very_high
317,317,2025,7,7147,Malarce-sur-la-Thines,7/3/2025 16:11,"  25,000.00 ",44.4777,4.0512,2025-07-03,"{'lat': 44.4777, 'lon': 4.0512, 'date': '2025-07-03', 'fwi': 36.921, 'fwi_class': 'high', 'fetched_at': '2026-06-30T14:34:34.085236Z'}",36.921,high
318,318,2025,56,56253,Tréal,7/5/2025 13:53,"  25,000.00 ",47.83,-2.2332,2025-07-05,"{'lat': 47.83, 'lon': -2.2332, 'date': '2025-07-05', 'fwi': 31.131, 'fwi_class': 'high', 'fetched_at': '2026-06-30T14:34:34.264928Z'}",31.131,high
319,319,2025,33,33151,Donnezac,7/10/2025 14:30,"  25,000.00 ",45.2397,-0.4468,2025-07-10,"{'lat': 45.2397, 'lon': -0.4468, 'date': '2025-07-10', 'fwi': 40.312, 'fwi_class': 'very_high', 'fetched_at': '2026-06-30T14:34:34.406665Z'}",40.312,very_high
320,320,2025,7,7187,Prunet,7/10/2025 21:52,"  25,000.00 ",44.5957,4.255,2025-07-10,"{'lat': 44.5957, 'lon': 4.255, 'date': '2025-07-10', 'fwi': 52.681, 'fwi_class': 'extreme', 'fetched_at': '2026-06-30T14:34:34.545510Z'}",52.681,extreme
321,321,2025,56,56180,Porcaro,7/11/2025 16:38,"  25,000.00 ",47.9204,-2.1917,2025-07-11,"{'lat': 47.9204, 'lon': -2.1917, 'date': '2025-07-11', 'fwi': 44.718, 'fwi_class': 'very_high', 'fetched_at': '2026-06-30T14:34:34.687788Z'}",44.718,very_high
322,322,2025,13,13056,Martigues,7/28/2025 14:54,"  25,000.00 ",43.3839,5.0451,2025-07-28,"{'lat': 43.3839, 'lon': 5.0451, 'date': '2025-07-28', 'fwi': 112.113, 'fwi_class': 'extreme', 'fetched_at': '2026-06-30T14:34:34.840415Z'}",112.113,extreme
323,323,2025,33,33515,Soulignac,8/6/2025 15:18,"  25,000.00 ",44.6944,-0.2873,2025-08-06,"{'lat': 44.6944, 'lon': -0.2873, 'date': '2025-08-06', 'fwi': 43.875, 'fwi_class': 'very_high', 'fetched_at': '2026-06-30T14:34:34.996310Z'}",43.875,very_high
324,324,2025,33,33248,Listrac-Médoc,8/7/2025 19:55,"  25,000.00 ",45.0699,-0.827,2025-08-07,"{'lat': 45.0699, 'lon': -0.827, 'date': '2025-08-07', 'fwi': 50.207, 'fwi_class': 'extreme', 'fetched_at': '2026-06-30T14:34:35.143328Z'}",50.207,extreme
325,325,2025,33,33284,Mios,8/8/2025 18:40,"  25,000.00 ",44.6105,-0.8913,2025-08-08,"{'lat': 44.6105, 'lon': -0.8913, 'date': '2025-08-08', 'fwi': 49.04, 'fwi_class': 'very_high', 'fetched_at': '2026-06-30T14:34:35.283222Z'}",49.04,very_high
326,326,2025,7,7201,Ruoms,8/26/2025 17:25,"  25,000.00 ",44.4506,4.347,2025-08-26,"{'lat': 44.4506, 'lon': 4.347, 'date': '2025-08-26', 'fwi': 24.82, 'fwi_class': 'high', 'fetched_at': '2026-06-30T14:34:35.420103Z'}",24.82,high
327,327,2025,2A,2A272,Sartène,8/28/2025 12:33,"  25,000.00 ",41.5752,8.9326,2025-08-28,"{'lat': 41.5752, 'lon': 8.9326, 'date': '2025-08-28', 'fwi': 31.832, 'fwi_class': 'high', 'fetched_at': '2026-06-30T14:34:35.562889Z'}",31.832,high
328,328,2025,2B,2B046,Cagnano,9/30/2025 12:50,"  25,000.00 ",42.8725,9.4431,2025-09-30,"{'lat': 42.8725, 'lon': 9.4431, 'date': '2025-09-30', 'fwi': 8.235, 'fwi_class': 'low', 'fetched_at': '2026-06-30T14:34:35.728757Z'}",8.235,low
330,330,2025,2B,2B009,Aléria,10/26/2025 12:49,"  25,000.00 ",42.0993,9.4972,2025-10-26,"{'lat': 42.0993, 'lon': 9.4972, 'date': '2025-10-26', 'fwi': 19.698, 'fwi_class': 'moderate', 'fetched_at': '2026-06-30T14:34:36.010174Z'}",19.698,moderate
331,331,2025,17,17074,Bussac-Forêt,7/12/2025 12:56,"  24,900.00 ",45.1928,-0.3774,2025-07-12,"{'lat': 45.1928, 'lon': -0.3774, 'date': '2025-07-12', 'fwi': 49.626, 'fwi_class': 'very_high', 'fetched_at': '2026-06-30T14:34:36.153599Z'}",49.626,very_high
332,332,2025,34,34116,Grabels,7/11/2025 13:04,"  24,392.00 ",43.6503,3.7894,2025-07-11,"{'lat': 43.6503, 'lon': 3.7894, 'date': '2025-07-11', 'fwi': 53.106, 'fwi_class': 'extreme', 'fetched_at': '2026-06-30T14:34:36.300965Z'}",53.106,extreme
333,333,2025,66,66187,Saint-Paul-de-Fenouillet,8/22/2025 15:06,"  23,860.00 ",42.8229,2.5025,2025-08-22,"{'lat': 42.8229, 'lon': 2.5025, 'date': '2025-08-22', 'fwi': 37.835, 'fwi_class': 'high', 'fetched_at': '2026-06-30T14:34:36.454426Z'}",37.835,high
334,334,2025,11,11210,Luc-sur-Orbieu,8/5/2025 23:59,"  23,400.00 ",43.1743,2.7886,2025-08-05,"{'lat': 43.1743, 'lon': 2.7886, 'date': '2025-08-05', 'fwi': 96.39, 'fwi_class': 'extreme', 'fetched_at': '2026-06-30T14:34:36.603289Z'}",96.39,extreme
335,335,2025,4,4139,Noyers-sur-Jabron,2/4/2025 15:53,"  23,200.00 ",44.1644,5.8078,2025-02-04,"{'lat': 44.1644, 'lon': 5.8078, 'date': '2025-02-04', 'fwi': 0.447, 'fwi_class': 'very_low', 'fetched_at': '2026-06-30T14:34:36.752036Z'}",0.447,very_low
336,336,2025,34,34147,Magalas,12/1/2025 15:23,"  23,020.00 ",43.4778,3.2216,2025-12-01,"{'lat': 43.4778, 'lon': 3.2216, 'date': '2025-12-01', 'fwi': 7.937, 'fwi_class': 'low', 'fetched_at': '2026-06-30T14:34:36.890737Z'}",7.937,low
337,337,2025,40,40319,Trensacq,8/13/2025 13:41,"  23,000.00 ",44.232,-0.7015,2025-08-13,"{'lat': 44.232, 'lon': -0.7015, 'date': '2025-08-13', 'fwi': 15.054, 'fwi_class': 'moderate', 'fetched_at': '2026-06-30T14:34:37.048176Z'}",15.054,moderate
338,338,2025,30,30114,Fontanès,10/7/2025 16:31,"  22,678.00 ",43.8297,4.0969,2025-10-07,"{'lat': 43.8297, 'lon': 4.0969, 'date': '2025-10-07', 'fwi': 24.061, 'fwi_class': 'high', 'fetched_at': '2026-06-30T14:34:37.190811Z'}",24.061,high
339,339,2025,34,34178,Murviel-lès-Béziers,10/28/2025 12:09,"  22,511.00 ",43.4597,3.1362,2025-10-28,"{'lat': 43.4597, 'lon': 3.1362, 'date': '2025-10-28', 'fwi': 18.918, 'fwi_class': 'moderate', 'fetched_at': '2026-06-30T14:34:37.337950Z'}",18.918,moderate
340,340,2025,13,13055,Marseille,7/2/2025 15:54,"  22,000.00 ",43.2803,5.3806,2025-07-02,"{'lat': 43.2803, 'lon': 5.3806, 'date': '2025-07-02', 'fwi': 12.071, 'fwi_class': 'moderate', 'fetched_at': '2026-06-30T14:34:37.478873Z'}",12.071,moderate
341,341,2025,12,12145,Millau,6/16/2025 15:52,"  22,000.00 ",44.0982,3.1176,2025-06-16,"{'lat': 44.0982, 'lon': 3.1176, 'date': '2025-06-16', 'fwi': 6.411, 'fwi_class': 'low', 'fetched_at': '2026-06-30T14:34:37.623188Z'}",6.411,low
342,342,2025,40,40158,Losse,7/12/2025 18:50,"  22,000.00 ",44.0948,-0.0933,2025-07-12,"{'lat': 44.0948, 'lon': -0.0933, 'date': '2025-07-12', 'fwi': 21.792, 'fwi_class': 'high', 'fetched_at': '2026-06-30T14:34:37.774349Z'}",21.792,high
344,344,2025,17,17084,Champagnolles,8/9/2025 14:27,"  21,200.00 ",45.509,-0.6462,2025-08-09,"{'lat': 45.509, 'lon': -0.6462, 'date': '2025-08-09', 'fwi': 54.152, 'fwi_class': 'extreme', 'fetched_at': '2026-06-30T14:34:38.068188Z'}",54.152,extreme
345,345,2025,40,40182,Mézos,5/26/2025 14:01,"  21,000.00 ",44.0848,-1.141,2025-05-26,"{'lat': 44.0848, 'lon': -1.141, 'date': '2025-05-26', 'fwi': 11.329, 'fwi_class': 'moderate', 'fetched_at': '2026-06-30T14:34:38.208373Z'}",11.329,moderate
346,346,2025,47,47106,Fumel,6/27/2025 17:55,"  21,000.00 ",44.5122,0.9799,2025-06-27,"{'lat': 44.5122, 'lon': 0.9799, 'date': '2025-06-27', 'fwi': 10.547, 'fwi_class': 'low', 'fetched_at': '2026-06-30T14:34:38.343106Z'}",10.547,low
347,347,2025,36,36154,Le Pêchereau,6/30/2025 13:08,"  21,000.00 ",46.584,1.5704,2025-06-30,"{'lat': 46.584, 'lon': 1.5704, 'date': '2025-06-30', 'fwi': 34.608, 'fwi_class': 'high', 'fetched_at': '2026-06-30T14:34:38.477630Z'}",34.608,high
348,348,2025,40,40243,Rion-des-Landes,8/8/2025 14:58,"  21,000.00 ",43.9318,-0.9436,2025-08-08,"{'lat': 43.9318, 'lon': -0.9436, 'date': '2025-08-08', 'fwi': 32.799, 'fwi_class': 'high', 'fetched_at': '2026-06-30T14:34:38.615154Z'}",32.799,high
349,349,2025,2A,2A001,Afa,8/28/2025 11:00,"  21,000.00 ",41.981,8.7975,2025-08-28,"{'lat': 41.981, 'lon': 8.7975, 'date': '2025-08-28', 'fwi': 30.57, 'fwi_class': 'high', 'fetched_at': '2026-06-30T14:34:38.750273Z'}",30.57,high
351,351,2025,16,16101,Claix,7/12/2025 11:01,"  20,100.00 ",45.5513,0.0536,2025-07-12,"{'lat': 45.5513, 'lon': 0.0536, 'date': '2025-07-12', 'fwi': 37.296, 'fwi_class': 'high', 'fetched_at': '2026-06-30T14:34:39.053878Z'}",37.296,high
352,352,2025,16,16054,Le Bouchage,7/9/2025 12:11,"  20,010.00 ",46.0477,0.3766,2025-07-09,"{'lat': 46.0477, 'lon': 0.3766, 'date': '2025-07-09', 'fwi': 44.772, 'fwi_class': 'very_high', 'fetched_at': '2026-06-30T14:34:39.196620Z'}",44.772,very_high
353,353,2025,13,13055,Marseille,7/8/2025 15:15,"  20,000.00 ",43.2803,5.3806,2025-07-08,"{'lat': 43.2803, 'lon': 5.3806, 'date': '2025-07-08', 'fwi': 100.954, 'fwi_class': 'extreme', 'fetched_at': '2026-06-30T14:34:39.344625Z'}",100.954,extreme
354,354,2025,2B,2B311,Santa-Maria-Poggio,1/15/2025 11:12,"  20,000.00 ",42.3499,9.509,2025-01-15,"{'lat': 42.3499, 'lon': 9.509, 'date': '2025-01-15', 'fwi': 6.676, 'fwi_class': 'low', 'fetched_at': '2026-06-30T14:34:39.488883Z'}",6.676,low
355,355,2025,64,64504,Sare,3/10/2025 21:00,"  20,000.00 ",43.2968,-1.5822,2025-03-10,"{'lat': 43.2968, 'lon': -1.5822, 'date': '2025-03-10', 'fwi': 0.546, 'fwi_class': 'very_low', 'fetched_at': '2026-06-30T14:34:39.645259Z'}",0.546,very_low
356,356,2025,81,81197,Noailles,4/1/2025 17:33,"  20,000.00 ",44.0115,1.9874,2025-04-01,"{'lat': 44.0115, 'lon': 1.9874, 'date': '2025-04-01', 'fwi': 4.242, 'fwi_class': 'very_low', 'fetched_at': '2026-06-30T14:34:39.803390Z'}",4.242,very_low
357,357,2025,46,46125,Gorses,4/11/2025 20:55,"  20,000.00 ",44.7929,2.0329,2025-04-11,"{'lat': 44.7929, 'lon': 2.0329, 'date': '2025-04-11', 'fwi': 20.829, 'fwi_class': 'moderate', 'fetched_at': '2026-06-30T14:34:39.949232Z'}",20.829,moderate
358,358,2025,33,33203,Hourtin,4/15/2025 9:19,"  20,000.00 ",45.1831,-1.0534,2025-04-15,"{'lat': 45.1831, 'lon': -1.0534, 'date': '2025-04-15', 'fwi': 9.183, 'fwi_class': 'low', 'fetched_at': '2026-06-30T14:34:40.091476Z'}",9.183,low
359,359,2025,41,41131,Mazangé,5/1/2025 0:33,"  20,000.00 ",47.8405,0.9493,2025-05-01,"{'lat': 47.8405, 'lon': 0.9493, 'date': '2025-05-01', 'fwi': 17.711, 'fwi_class': 'moderate', 'fetched_at': '2026-06-30T14:34:40.226527Z'}",17.711,moderate
360,360,2025,41,41229,Saint-Romain-sur-Cher,5/1/2025 0:33,"  20,000.00 ",47.3169,1.3902,2025-05-01,"{'lat': 47.3169, 'lon': 1.3902, 'date': '2025-05-01', 'fwi': 18.019, 'fwi_class': 'moderate', 'fetched_at': '2026-06-30T14:34:40.376137Z'}",18.019,moderate
361,361,2025,44,44067,Guémené-Penfao,5/5/2025 12:28,"  20,000.00 ",47.6412,-1.8223,2025-05-05,"{'lat': 47.6412, 'lon': -1.8223, 'date': '2025-05-05', 'fwi': 12.327, 'fwi_class': 'moderate', 'fetched_at': '2026-06-30T14:34:40.558744Z'}",12.327,moderate
362,362,2025,2B,2B283,Solaro,6/18/2025 15:30,"  20,000.00 ",41.8789,9.3181,2025-06-18,"{'lat': 41.8789, 'lon': 9.3181, 'date': '2025-06-18', 'fwi': 5.475, 'fwi_class': 'low', 'fetched_at': '2026-06-30T14:34:40.705875Z'}",5.475,low
363,363,2025,72,72191,Mayet,6/19/2025 15:07,"  20,000.00 ",47.7618,0.2809,2025-06-19,"{'lat': 47.7618, 'lon': 0.2809, 'date': '2025-06-19', 'fwi': 39.915, 'fwi_class': 'very_high', 'fetched_at': '2026-06-30T14:34:40.856237Z'}",39.915,very_high
364,364,2025,16,16064,Brigueuil,6/28/2025 18:15,"  20,000.00 ",45.9503,0.8769,2025-06-28,"{'lat': 45.9503, 'lon': 0.8769, 'date': '2025-06-28', 'fwi': 25.94, 'fwi_class': 'high', 'fetched_at': '2026-06-30T14:34:41.009706Z'}",25.94,high
365,365,2025,13,13063,Miramas,7/2/2025 14:17,"  20,000.00 ",43.5841,5.0148,2025-07-02,"{'lat': 43.5841, 'lon': 5.0148, 'date': '2025-07-02', 'fwi': 43.048, 'fwi_class': 'very_high', 'fetched_at': '2026-06-30T14:34:41.156689Z'}",43.048,very_high
366,366,2025,26,26143,Le Grand-Serre,7/2/2025 16:00,"  20,000.00 ",45.2585,5.1029,2025-07-02,"{'lat': 45.2585, 'lon': 5.1029, 'date': '2025-07-02', 'fwi': 33.172, 'fwi_class': 'high', 'fetched_at': '2026-06-30T14:34:41.299420Z'}",33.172,high
367,367,2025,41,41297,Yvoy-le-Marron,7/2/2025 16:18,"  20,000.00 ",47.6382,1.8543,2025-07-02,"{'lat': 47.6382, 'lon': 1.8543, 'date': '2025-07-02', 'fwi': 56.845, 'fwi_class': 'extreme', 'fetched_at': '2026-06-30T14:34:41.451767Z'}",56.845,extreme
368,368,2025,13,13013,Belcodène,7/8/2025 14:30,"  20,000.00 ",43.4231,5.5846,2025-07-08,"{'lat': 43.4231, 'lon': 5.5846, 'date': '2025-07-08', 'fwi': 72.319, 'fwi_class': 'extreme', 'fetched_at': '2026-06-30T14:34:41.607628Z'}",72.319,extreme
369,369,2025,26,26113,Die,7/8/2025 15:45,"  20,000.00 ",44.7515,5.3878,2025-07-08,"{'lat': 44.7515, 'lon': 5.3878, 'date': '2025-07-08', 'fwi': 36.705, 'fwi_class': 'high', 'fetched_at': '2026-06-30T14:34:41.751811Z'}",36.705,high
370,370,2025,56,56260,Vannes,7/9/2025 22:26,"  20,000.00 ",47.6577,-2.7485,2025-07-09,"{'lat': 47.6577, 'lon': -2.7485, 'date': '2025-07-09', 'fwi': 13.855, 'fwi_class': 'moderate', 'fetched_at': '2026-06-30T14:34:41.942577Z'}",13.855,moderate
371,371,2025,56,56193,Riantec,7/11/2025 20:19,"  20,000.00 ",47.7208,-3.3029,2025-07-11,"{'lat': 47.7208, 'lon': -3.3029, 'date': '2025-07-11', 'fwi': 30.7, 'fwi_class': 'high', 'fetched_at': '2026-06-30T14:34:42.091992Z'}",30.7,high
372,372,2025,19,19257,Sérilhac,7/12/2025 15:13,"  20,000.00 ",45.096,1.7365,2025-07-12,"{'lat': 45.096, 'lon': 1.7365, 'date': '2025-07-12', 'fwi': 35.948, 'fwi_class': 'high', 'fetched_at': '2026-06-30T14:34:42.230368Z'}",35.948,high
373,373,2025,13,13005,Aubagne,7/17/2025 8:03,"  20,000.00 ",43.2904,5.5643,2025-07-17,"{'lat': 43.2904, 'lon': 5.5643, 'date': '2025-07-17', 'fwi': 91.354, 'fwi_class': 'extreme', 'fetched_at': '2026-06-30T14:34:42.374502Z'}",91.354,extreme
374,374,2025,5,5081,Montclus,7/26/2025 17:01,"  20,000.00 ",44.4119,5.6673,2025-07-26,"{'lat': 44.4119, 'lon': 5.6673, 'date': '2025-07-26', 'fwi': 22.749, 'fwi_class': 'high', 'fetched_at': '2026-06-30T14:34:42.530178Z'}",22.749,high
375,375,2025,33,33528,Le Temple,7/29/2025 16:09,"  20,000.00 ",44.8662,-0.9609,2025-07-29,"{'lat': 44.8662, 'lon': -0.9609, 'date': '2025-07-29', 'fwi': 26.674, 'fwi_class': 'high', 'fetched_at': '2026-06-30T14:34:42.685536Z'}",26.674,high
376,376,2025,56,56026,Bubry,8/4/2025 16:31,"  20,000.00 ",47.9706,-3.1743,2025-08-04,"{'lat': 47.9706, 'lon': -3.1743, 'date': '2025-08-04', 'fwi': 19.668, 'fwi_class': 'moderate', 'fetched_at': '2026-06-30T14:34:42.828170Z'}",19.668,moderate
377,377,2025,11,11045,Bouriège,8/5/2025 17:07,"  20,000.00 ",42.9938,2.1575,2025-08-05,"{'lat': 42.9938, 'lon': 2.1575, 'date': '2025-08-05', 'fwi': 57.444, 'fwi_class': 'extreme', 'fetched_at': '2026-06-30T14:34:42.966180Z'}",57.444,extreme
378,378,2025,56,56212,Saint-Dolay,8/5/2025 17:30,"  20,000.00 ",47.5402,-2.1695,2025-08-05,"{'lat': 47.5402, 'lon': -2.1695, 'date': '2025-08-05', 'fwi': 7.049, 'fwi_class': 'low', 'fetched_at': '2026-06-30T14:34:43.116705Z'}",7.049,low
379,379,2025,72,72286,Saint-Gervais-de-Vic,8/11/2025 16:30,"  20,000.00 ",47.8819,0.7292,2025-08-11,"{'lat': 47.8819, 'lon': 0.7292, 'date': '2025-08-11', 'fwi': 44.13, 'fwi_class': 'very_high', 'fetched_at': '2026-06-30T14:34:43.269003Z'}",44.13,very_high
380,380,2025,16,16096,Cherves-Châtelars,8/11/2025 17:52,"  20,000.00 ",45.8073,0.5502,2025-08-11,"{'lat': 45.8073, 'lon': 0.5502, 'date': '2025-08-11', 'fwi': 42.768, 'fwi_class': 'very_high', 'fetched_at': '2026-06-30T14:34:43.438001Z'}",42.768,very_high
381,381,2025,33,33229,Lanton,8/13/2025 1:09,"  20,000.00 ",44.7719,-0.9799,2025-08-13,"{'lat': 44.7719, 'lon': -0.9799, 'date': '2025-08-13', 'fwi': 28.259, 'fwi_class': 'high', 'fetched_at': '2026-06-30T14:34:43.587909Z'}",28.259,high
382,382,2025,33,33501,Saucats,8/13/2025 2:49,"  20,000.00 ",44.6476,-0.6377,2025-08-13,"{'lat': 44.6476, 'lon': -0.6377, 'date': '2025-08-13', 'fwi': 28.78, 'fwi_class': 'high', 'fetched_at': '2026-06-30T14:34:43.741917Z'}",28.78,high
383,383,2025,40,40323,Vert,8/13/2025 13:01,"  20,000.00 ",44.0955,-0.6138,2025-08-13,"{'lat': 44.0955, 'lon': -0.6138, 'date': '2025-08-13', 'fwi': 27.766, 'fwi_class': 'high', 'fetched_at': '2026-06-30T14:34:43.888207Z'}",27.766,high
384,384,2025,86,86203,Queaux,8/14/2025 15:03,"  20,000.00 ",46.3104,0.6356,2025-08-14,"{'lat': 46.3104, 'lon': 0.6356, 'date': '2025-08-14', 'fwi': 28.886, 'fwi_class': 'high', 'fetched_at': '2026-06-30T14:34:44.050597Z'}",28.886,high
385,385,2025,79,79329,Thouars,8/15/2025 17:47,"  20,000.00 ",46.9765,-0.2466,2025-08-15,"{'lat': 46.9765, 'lon': -0.2466, 'date': '2025-08-15', 'fwi': 44.673, 'fwi_class': 'very_high', 'fetched_at': '2026-06-30T14:34:44.199482Z'}",44.673,very_high
386,386,2025,2B,2B185,Oletta,8/17/2025 13:05,"  20,000.00 ",42.6451,9.3453,2025-08-17,"{'lat': 42.6451, 'lon': 9.3453, 'date': '2025-08-17', 'fwi': 35.799, 'fwi_class': 'high', 'fetched_at': '2026-06-30T14:34:44.368746Z'}",35.799,high
387,387,2025,39,39333,Moirans-en-Montagne,8/17/2025 18:22,"  20,000.00 ",46.4418,5.7369,2025-08-17,"{'lat': 46.4418, 'lon': 5.7369, 'date': '2025-08-17', 'fwi': 19.967, 'fwi_class': 'moderate', 'fetched_at': '2026-06-30T14:34:44.549654Z'}",19.967,moderate
388,388,2025,1,1017,Argis,8/26/2025 14:54,"  20,000.00 ",45.9322,5.4819,2025-08-26,"{'lat': 45.9322, 'lon': 5.4819, 'date': '2025-08-26', 'fwi': 14.918, 'fwi_class': 'moderate', 'fetched_at': '2026-06-30T14:34:44.741699Z'}",14.918,moderate
389,389,2025,2B,2B292,Sant'Andréa-di-Bozio,9/20/2025 14:29,"  20,000.00 ",42.2767,9.2792,2025-09-20,"{'lat': 42.2767, 'lon': 9.2792, 'date': '2025-09-20', 'fwi': 39.67, 'fwi_class': 'very_high', 'fetched_at': '2026-06-30T14:34:44.913420Z'}",39.67,very_high
390,390,2025,24,24018,Auriac-du-Périgord,10/1/2025 15:49,"  20,000.00 ",45.1116,1.1286,2025-10-01,"{'lat': 45.1116, 'lon': 1.1286, 'date': '2025-10-01', 'fwi': 5.176, 'fwi_class': 'very_low', 'fetched_at': '2026-06-30T14:34:45.075435Z'}",5.176,very_low
391,391,2025,33,33011,Arès,10/2/2025 13:31,"  20,000.00 ",44.7997,-1.0837,2025-10-02,"{'lat': 44.7997, 'lon': -1.0837, 'date': '2025-10-02', 'fwi': 12.755, 'fwi_class': 'moderate', 'fetched_at': '2026-06-30T14:34:45.212126Z'}",12.755,moderate
392,392,2025,33,33229,Lanton,11/5/2025 13:05,"  20,000.00 ",44.7719,-0.9799,2025-11-05,"{'lat': 44.7719, 'lon': -0.9799, 'date': '2025-11-05', 'fwi': 2.808, 'fwi_class': 'very_low', 'fetched_at': '2026-06-30T14:34:45.392274Z'}",2.808,very_low
393,393,2025,11,11069,Carcassonne,8/23/2025 15:49,"  19,300.00 ",43.2078,2.3491,2025-08-23,"{'lat': 43.2078, 'lon': 2.3491, 'date': '2025-08-23', 'fwi': 43.828, 'fwi_class': 'very_high', 'fetched_at': '2026-06-30T14:34:45.546351Z'}",43.828,very_high
394,394,2025,6,6157,Vence,9/12/2025 11:46,"  19,100.00 ",43.7373,7.0995,2025-09-12,"{'lat': 43.7373, 'lon': 7.0995, 'date': '2025-09-12', 'fwi': 12.917, 'fwi_class': 'moderate', 'fetched_at': '2026-06-30T14:34:45.701419Z'}",12.917,moderate
395,395,2025,34,34086,Courniou,9/16/2025 16:06,"  18,515.00 ",43.4889,2.6951,2025-09-16,"{'lat': 43.4889, 'lon': 2.6951, 'date': '2025-09-16', 'fwi': 17.587, 'fwi_class': 'moderate', 'fetched_at': '2026-06-30T14:34:45.849369Z'}",17.587,moderate
396,396,2025,34,34020,Azillanet,10/30/2025 13:50,"  18,437.00 ",43.3263,2.7475,2025-10-30,"{'lat': 43.3263, 'lon': 2.7475, 'date': '2025-10-30', 'fwi': 18.477, 'fwi_class': 'moderate', 'fetched_at': '2026-06-30T14:34:45.996962Z'}",18.477,moderate
397,397,2025,13,13071,Les Pennes-Mirabeau,7/18/2025 13:46,"  18,300.00 ",43.4005,5.3222,2025-07-18,"{'lat': 43.4005, 'lon': 5.3222, 'date': '2025-07-18', 'fwi': 58.19, 'fwi_class': 'extreme', 'fetched_at': '2026-06-30T14:34:46.146515Z'}",58.19,extreme
398,398,2025,34,34210,Le Pouget,10/28/2025 12:31,"  18,269.00 ",43.5919,3.5184,2025-10-28,"{'lat': 43.5919, 'lon': 3.5184, 'date': '2025-10-28', 'fwi': 13.543, 'fwi_class': 'moderate', 'fetched_at': '2026-06-30T14:34:46.295991Z'}",13.543,moderate
399,399,2025,4,4112,Manosque,7/27/2025 4:32,"  17,841.00 ",43.8293,5.7896,2025-07-27,"{'lat': 43.8293, 'lon': 5.7896, 'date': '2025-07-27', 'fwi': 62.299, 'fwi_class': 'extreme', 'fetched_at': '2026-06-30T14:34:46.444922Z'}",62.299,extreme
400,400,2025,34,34245,Saint-Chinian,6/19/2025 12:10,"  17,635.00 ",43.4274,2.9276,2025-06-19,"{'lat': 43.4274, 'lon': 2.9276, 'date': '2025-06-19', 'fwi': 42.929, 'fwi_class': 'very_high', 'fetched_at': '2026-06-30T14:34:46.613085Z'}",42.929,very_high
401,401,2025,65,65135,Castillon,3/6/2025 13:54,"  17,300.00 ",43.0951,0.2219,2025-03-06,"{'lat': 43.0951, 'lon': 0.2219, 'date': '2025-03-06', 'fwi': 0.667, 'fwi_class': 'very_low', 'fetched_at': '2026-06-30T14:34:46.788349Z'}",0.667,very_low
402,402,2025,34,34079,Clermont-l'Hérault,7/8/2025 18:49,"  17,231.00 ",43.6323,3.4017,2025-07-08,"{'lat': 43.6323, 'lon': 3.4017, 'date': '2025-07-08', 'fwi': 68.67, 'fwi_class': 'extreme', 'fetched_at': '2026-06-30T14:34:46.960465Z'}",68.67,extreme
403,403,2025,34,34074,Cessenon-sur-Orb,10/6/2025 14:52,"  17,074.00 ",43.4533,3.0363,2025-10-06,"{'lat': 43.4533, 'lon': 3.0363, 'date': '2025-10-06', 'fwi': 22.534, 'fwi_class': 'high', 'fetched_at': '2026-06-30T14:34:47.125192Z'}",22.534,high
404,404,2025,76,76497,Petit-Couronne,5/1/2025 15:13,"  17,000.00 ",49.3817,1.0342,2025-05-01,"{'lat': 49.3817, 'lon': 1.0342, 'date': '2025-05-01', 'fwi': 25.084, 'fwi_class': 'high', 'fetched_at': '2026-06-30T14:34:47.304027Z'}",25.084,high
405,405,2025,7,7237,Saint-Fortunat-sur-Eyrieux,9/20/2025 15:59,"  17,000.00 ",44.8385,4.684,2025-09-20,"{'lat': 44.8385, 'lon': 4.684, 'date': '2025-09-20', 'fwi': 25.925, 'fwi_class': 'high', 'fetched_at': '2026-06-30T14:34:47.468241Z'}",25.925,high
406,406,2025,84,84007,Avignon,6/16/2025 18:29,"  16,700.00 ",43.9416,4.8333,2025-06-16,"{'lat': 43.9416, 'lon': 4.8333, 'date': '2025-06-16', 'fwi': 95.41, 'fwi_class': 'extreme', 'fetched_at': '2026-06-30T14:34:47.640535Z'}",95.41,extreme
407,407,2025,34,34184,Nizas,8/16/2025 14:05,"  16,643.00 ",43.5127,3.4167,2025-08-16,"{'lat': 43.5127, 'lon': 3.4167, 'date': '2025-08-16', 'fwi': 97.98, 'fwi_class': 'extreme', 'fetched_at': '2026-06-30T14:34:47.825068Z'}",97.98,extreme
408,408,2025,8,8408,Sécheval,8/14/2025 16:04,"  16,400.00 ",49.8613,4.6707,2025-08-14,"{'lat': 49.8613, 'lon': 4.6707, 'date': '2025-08-14', 'fwi': 21.525, 'fwi_class': 'high', 'fetched_at': '2026-06-30T14:34:47.991335Z'}",21.525,high
409,409,2025,34,34018,Autignac,12/1/2025 16:04,"  16,342.00 ",43.4991,3.1636,2025-12-01,"{'lat': 43.4991, 'lon': 3.1636, 'date': '2025-12-01', 'fwi': 6.369, 'fwi_class': 'low', 'fetched_at': '2026-06-30T14:34:48.149274Z'}",6.369,low
410,410,2025,33,33376,Saint-Aubin-de-Médoc,3/7/2025 16:54,"  16,000.00 ",44.9343,-0.7478,2025-03-07,"{'lat': 44.9343, 'lon': -0.7478, 'date': '2025-03-07', 'fwi': 4.635, 'fwi_class': 'very_low', 'fetched_at': '2026-06-30T14:34:48.310811Z'}",4.635,very_low
411,411,2025,56,56075,Guer,8/25/2025 17:36,"  16,000.00 ",47.905,-2.1281,2025-08-25,"{'lat': 47.905, 'lon': -2.1281, 'date': '2025-08-25', 'fwi': 38.622, 'fwi_class': 'very_high', 'fetched_at': '2026-06-30T14:34:48.496112Z'}",38.622,very_high
412,412,2025,2A,2A048,Calcatoggio,8/26/2025 15:11,"  16,000.00 ",42.0305,8.7307,2025-08-26,"{'lat': 42.0305, 'lon': 8.7307, 'date': '2025-08-26', 'fwi': 21.953, 'fwi_class': 'high', 'fetched_at': '2026-06-30T14:34:48.700577Z'}",21.953,high
413,413,2025,30,30133,Le Grau-du-Roi,7/16/2025 15:56,"  15,998.00 ",43.5149,4.1704,2025-07-16,"{'lat': 43.5149, 'lon': 4.1704, 'date': '2025-07-16', 'fwi': 41.048, 'fwi_class': 'very_high', 'fetched_at': '2026-06-30T14:34:48.860339Z'}",41.048,very_high
414,414,2025,48,48068,Gabrias,8/5/2025 16:02,"  15,762.00 ",44.5522,3.3848,2025-08-05,"{'lat': 44.5522, 'lon': 3.3848, 'date': '2025-08-05', 'fwi': 41.538, 'fwi_class': 'very_high', 'fetched_at': '2026-06-30T14:34:49.016595Z'}",41.538,very_high
415,415,2025,11,11304,Quillan,8/7/2025 14:06,"  15,500.00 ",42.8833,2.1733,2025-08-07,"{'lat': 42.8833, 'lon': 2.1733, 'date': '2025-08-07', 'fwi': 29.526, 'fwi_class': 'high', 'fetched_at': '2026-06-30T14:34:49.186723Z'}",29.526,high
416,416,2025,34,34028,Bédarieux,8/14/2025 16:50,"  15,403.00 ",43.6113,3.1637,2025-08-14,"{'lat': 43.6113, 'lon': 3.1637, 'date': '2025-08-14', 'fwi': 47.474, 'fwi_class': 'very_high', 'fetched_at': '2026-06-30T14:34:49.339031Z'}",47.474,very_high
417,417,2025,34,34281,Saint-Pargoire,6/29/2025 0:30,"  15,369.00 ",43.5268,3.5416,2025-06-29,"{'lat': 43.5268, 'lon': 3.5416, 'date': '2025-06-29', 'fwi': 57.685, 'fwi_class': 'extreme', 'fetched_at': '2026-06-30T14:34:49.495305Z'}",57.685,extreme
418,418,2025,46,46033,Porte-du-Quercy,8/17/2025 15:00,"  15,200.00 ",44.414,1.1354,2025-08-17,"{'lat': 44.414, 'lon': 1.1354, 'date': '2025-08-17', 'fwi': 50.95, 'fwi_class': 'extreme', 'fetched_at': '2026-06-30T14:34:49.642494Z'}",50.95,extreme
419,419,2025,41,41139,Meusnes,6/23/2025 22:27,"  15,000.00 ",47.2419,1.501,2025-06-23,"{'lat': 47.2419, 'lon': 1.501, 'date': '2025-06-23', 'fwi': 33.718, 'fwi_class': 'high', 'fetched_at': '2026-06-30T14:34:49.800319Z'}",33.718,high
420,420,2025,2A,2A004,Ajaccio,6/25/2025 16:00,"  15,000.00 ",41.9228,8.7058,2025-06-25,"{'lat': 41.9228, 'lon': 8.7058, 'date': '2025-06-25', 'fwi': 20.653, 'fwi_class': 'moderate', 'fetched_at': '2026-06-30T14:34:49.966219Z'}",20.653,moderate
421,421,2025,6,6116,Saint-Auban,6/26/2025 14:16,"  15,000.00 ",43.8319,6.7367,2025-06-26,"{'lat': 43.8319, 'lon': 6.7367, 'date': '2025-06-26', 'fwi': 35.182, 'fwi_class': 'high', 'fetched_at': '2026-06-30T14:34:50.120941Z'}",35.182,high
422,422,2025,66,66046,Caudiès-de-Fenouillèdes,6/29/2025 15:07,"  15,000.00 ",42.8213,2.3781,2025-06-29,"{'lat': 42.8213, 'lon': 2.3781, 'date': '2025-06-29', 'fwi': 47.131, 'fwi_class': 'very_high', 'fetched_at': '2026-06-30T14:34:50.270649Z'}",47.131,very_high
423,423,2025,72,72090,Connerré,6/29/2025 20:33,"  15,000.00 ",48.0504,0.4703,2025-06-29,"{'lat': 48.0504, 'lon': 0.4703, 'date': '2025-06-29', 'fwi': 24.74, 'fwi_class': 'high', 'fetched_at': '2026-06-30T14:34:50.433374Z'}",24.74,high
424,424,2025,11,11117,Davejean,7/2/2025 15:17,"  15,000.00 ",42.9597,2.6096,2025-07-02,"{'lat': 42.9597, 'lon': 2.6096, 'date': '2025-07-02', 'fwi': 54.341, 'fwi_class': 'extreme', 'fetched_at': '2026-06-30T14:34:50.630226Z'}",54.341,extreme
425,425,2025,87,87039,Château-Chervix,7/5/2025 18:04,"  15,000.00 ",45.5927,1.3693,2025-07-05,"{'lat': 45.5927, 'lon': 1.3693, 'date': '2025-07-05', 'fwi': 27.863, 'fwi_class': 'high', 'fetched_at': '2026-06-30T14:34:50.829521Z'}",27.863,high
426,426,2025,66,66026,Brouilla,7/8/2025 18:14,"  15,000.00 ",42.5759,2.8927,2025-07-08,"{'lat': 42.5759, 'lon': 2.8927, 'date': '2025-07-08', 'fwi': 7.054, 'fwi_class': 'low', 'fetched_at': '2026-06-30T14:34:51.241280Z'}",7.054,low
427,427,2025,33,33329,Pompéjac,7/10/2025 16:01,"  15,000.00 ",44.3986,-0.2997,2025-07-10,"{'lat': 44.3986, 'lon': -0.2997, 'date': '2025-07-10', 'fwi': 44.647, 'fwi_class': 'very_high', 'fetched_at': '2026-06-30T14:34:51.418205Z'}",44.647,very_high
428,428,2025,7,7089,Félines,7/12/2025 11:40,"  15,000.00 ",45.3155,4.7205,2025-07-12,"{'lat': 45.3155, 'lon': 4.7205, 'date': '2025-07-12', 'fwi': 30.626, 'fwi_class': 'high', 'fetched_at': '2026-06-30T14:34:51.600302Z'}",30.626,high
